{"type":"FeatureCollection","features":[{"type":"Feature","properties":{"nom":"Aiglun","code":"06001","codeDepartement":"06","codeRegion":"93","codesPostaux":["06910"],"population":89},"geometry":{"type":"Point","coordinates":[6.932838523076928,43.85666472087918]}},{"type":"Feature","properties":{"nom":"Amirat","code":"06002","codeDepartement":"06","codeRegion":"93","codesPostaux":["06910"],"population":73},"geometry":{"type":"Point","coordinates":[6.811517285420949,43.89777055646822]}},{"type":"Feature","properties":{"nom":"Andon","code":"06003","codeDepartement":"06","codeRegion":"93","codesPostaux":["06750"],"population":589},"geometry":{"type":"Point","coordinates":[6.821371891525429,43.778396045762705]}},{"type":"Feature","properties":{"nom":"Antibes","code":"06004","codeDepartement":"06","codeRegion":"93","codesPostaux":["06600","06160"],"population":73798},"geometry":{"type":"Point","coordinates":[7.1178412811244955,43.57335785301203]}},{"type":"Feature","properties":{"nom":"Ascros","code":"06005","codeDepartement":"06","codeRegion":"93","codesPostaux":["06260"],"population":166},"geometry":{"type":"Point","coordinates":[7.01043256415929,43.912766351769896]}},{"type":"Feature","properties":{"nom":"Aspremont","code":"06006","codeDepartement":"06","codeRegion":"93","codesPostaux":["06790"],"population":2144},"geometry":{"type":"Point","coordinates":[7.241892645892347,43.778006815864]}},{"type":"Feature","properties":{"nom":"Auribeau-sur-Siagne","code":"06007","codeDepartement":"06","codeRegion":"93","codesPostaux":["06810"],"population":3245},"geometry":{"type":"Point","coordinates":[6.910182969111967,43.61210763320464]}},{"type":"Feature","properties":{"nom":"Auvare","code":"06008","codeDepartement":"06","codeRegion":"93","codesPostaux":["06260"],"population":32},"geometry":{"type":"Point","coordinates":[6.915237894179896,44.0116653015873]}},{"type":"Feature","properties":{"nom":"Bairols","code":"06009","codeDepartement":"06","codeRegion":"93","codesPostaux":["06420"],"population":104},"geometry":{"type":"Point","coordinates":[7.120780075268823,43.98585473835126]}},{"type":"Feature","properties":{"nom":"Le Bar-sur-Loup","code":"06010","codeDepartement":"06","codeRegion":"93","codesPostaux":["06620"],"population":2976},"geometry":{"type":"Point","coordinates":[6.966079362500006,43.69907488624999]}},{"type":"Feature","properties":{"nom":"Beaulieu-sur-Mer","code":"06011","codeDepartement":"06","codeRegion":"93","codesPostaux":["06310"],"population":3721},"geometry":{"type":"Point","coordinates":[7.332193929577463,43.70838640375591]}},{"type":"Feature","properties":{"nom":"Beausoleil","code":"06012","codeDepartement":"06","codeRegion":"93","codesPostaux":["06240"],"population":13884},"geometry":{"type":"Point","coordinates":[7.420910650602405,43.747727807228955]}},{"type":"Feature","properties":{"nom":"Belvédère","code":"06013","codeDepartement":"06","codeRegion":"93","codesPostaux":["06450"],"population":674},"geometry":{"type":"Point","coordinates":[7.355620024271849,44.04876280825243]}},{"type":"Feature","properties":{"nom":"Bendejun","code":"06014","codeDepartement":"06","codeRegion":"93","codesPostaux":["06390"],"population":955},"geometry":{"type":"Point","coordinates":[7.286794159851304,43.8305565613383]}},{"type":"Feature","properties":{"nom":"Berre-les-Alpes","code":"06015","codeDepartement":"06","codeRegion":"93","codesPostaux":["06390"],"population":1259},"geometry":{"type":"Point","coordinates":[7.338402277777779,43.83179876282048]}},{"type":"Feature","properties":{"nom":"Beuil","code":"06016","codeDepartement":"06","codeRegion":"93","codesPostaux":["06470"],"population":510},"geometry":{"type":"Point","coordinates":[6.963787395876289,44.119340107216516]}},{"type":"Feature","properties":{"nom":"Bézaudun-les-Alpes","code":"06017","codeDepartement":"06","codeRegion":"93","codesPostaux":["06510"],"population":242},"geometry":{"type":"Point","coordinates":[7.097983567567568,43.801667716216244]}},{"type":"Feature","properties":{"nom":"Biot","code":"06018","codeDepartement":"06","codeRegion":"93","codesPostaux":["06410"],"population":9804},"geometry":{"type":"Point","coordinates":[7.08165954355401,43.622790135888536]}},{"type":"Feature","properties":{"nom":"Blausasc","code":"06019","codeDepartement":"06","codeRegion":"93","codesPostaux":["06440"],"population":1514},"geometry":{"type":"Point","coordinates":[7.359430984962412,43.79554399548875]}},{"type":"Feature","properties":{"nom":"La Bollène-Vésubie","code":"06020","codeDepartement":"06","codeRegion":"93","codesPostaux":["06450"],"population":579},"geometry":{"type":"Point","coordinates":[7.367810532727272,43.999043636363616]}},{"type":"Feature","properties":{"nom":"Bonson","code":"06021","codeDepartement":"06","codeRegion":"93","codesPostaux":["06830"],"population":737},"geometry":{"type":"Point","coordinates":[7.177463552023121,43.8616968265896]}},{"type":"Feature","properties":{"nom":"Bouyon","code":"06022","codeDepartement":"06","codeRegion":"93","codesPostaux":["06510"],"population":516},"geometry":{"type":"Point","coordinates":[7.1277638238993735,43.825978050314504]}},{"type":"Feature","properties":{"nom":"Breil-sur-Roya","code":"06023","codeDepartement":"06","codeRegion":"93","codesPostaux":["06540"],"population":2166},"geometry":{"type":"Point","coordinates":[7.514523716786817,43.92895944593197]}},{"type":"Feature","properties":{"nom":"Briançonnet","code":"06024","codeDepartement":"06","codeRegion":"93","codesPostaux":["06850"],"population":222},"geometry":{"type":"Point","coordinates":[6.724688576759053,43.8700819051173]}},{"type":"Feature","properties":{"nom":"Le Broc","code":"06025","codeDepartement":"06","codeRegion":"93","codesPostaux":["06510"],"population":1409},"geometry":{"type":"Point","coordinates":[7.151395304347827,43.81102316996049]}},{"type":"Feature","properties":{"nom":"Cabris","code":"06026","codeDepartement":"06","codeRegion":"93","codesPostaux":["06530"],"population":1296},"geometry":{"type":"Point","coordinates":[6.876088896907217,43.656989302405535]}},{"type":"Feature","properties":{"nom":"Cagnes-sur-Mer","code":"06027","codeDepartement":"06","codeRegion":"93","codesPostaux":["06800"],"population":49902},"geometry":{"type":"Point","coordinates":[7.153271147113596,43.67004276163867]}},{"type":"Feature","properties":{"nom":"Caille","code":"06028","codeDepartement":"06","codeRegion":"93","codesPostaux":["06750"],"population":436},"geometry":{"type":"Point","coordinates":[6.758937932203391,43.76476279661019]}},{"type":"Feature","properties":{"nom":"Cannes","code":"06029","codeDepartement":"06","codeRegion":"93","codesPostaux":["06150","06400"],"population":74152},"geometry":{"type":"Point","coordinates":[7.019064688599842,43.538447740627376]}},{"type":"Feature","properties":{"nom":"Le Cannet","code":"06030","codeDepartement":"06","codeRegion":"93","codesPostaux":["06110"],"population":41612},"geometry":{"type":"Point","coordinates":[7.001643466135453,43.570865908366535]}},{"type":"Feature","properties":{"nom":"Cantaron","code":"06031","codeDepartement":"06","codeRegion":"93","codesPostaux":["06340"],"population":1322},"geometry":{"type":"Point","coordinates":[7.316151627009642,43.77082468810289]}},{"type":"Feature","properties":{"nom":"Cap-d'Ail","code":"06032","codeDepartement":"06","codeRegion":"93","codesPostaux":["06320"],"population":4658},"geometry":{"type":"Point","coordinates":[7.400123122866892,43.72375180204779]}},{"type":"Feature","properties":{"nom":"Carros","code":"06033","codeDepartement":"06","codeRegion":"93","codesPostaux":["06510"],"population":11614},"geometry":{"type":"Point","coordinates":[7.175033213649847,43.78079429970329]}},{"type":"Feature","properties":{"nom":"Castagniers","code":"06034","codeDepartement":"06","codeRegion":"93","codesPostaux":["06670"],"population":1596},"geometry":{"type":"Point","coordinates":[7.232348185975608,43.796143487804876]}},{"type":"Feature","properties":{"nom":"Castellar","code":"06035","codeDepartement":"06","codeRegion":"93","codesPostaux":["06500"],"population":1059},"geometry":{"type":"Point","coordinates":[7.496302516129028,43.81906224069482]}},{"type":"Feature","properties":{"nom":"Castillon","code":"06036","codeDepartement":"06","codeRegion":"93","codesPostaux":["06500"],"population":373},"geometry":{"type":"Point","coordinates":[7.465212144067801,43.83610313276837]}},{"type":"Feature","properties":{"nom":"Caussols","code":"06037","codeDepartement":"06","codeRegion":"93","codesPostaux":["06460"],"population":274},"geometry":{"type":"Point","coordinates":[6.907700512820515,43.738083247863244]}},{"type":"Feature","properties":{"nom":"Châteauneuf-Grasse","code":"06038","codeDepartement":"06","codeRegion":"93","codesPostaux":["06740"],"population":3364},"geometry":{"type":"Point","coordinates":[6.979880704809285,43.66756187396352]}},{"type":"Feature","properties":{"nom":"Châteauneuf-Villevieille","code":"06039","codeDepartement":"06","codeRegion":"93","codesPostaux":["06390"],"population":922},"geometry":{"type":"Point","coordinates":[7.2973208563380245,43.80389160000002]}},{"type":"Feature","properties":{"nom":"Châteauneuf-d'Entraunes","code":"06040","codeDepartement":"06","codeRegion":"93","codesPostaux":["06470"],"population":53},"geometry":{"type":"Point","coordinates":[6.840169183150185,44.160117593406596]}},{"type":"Feature","properties":{"nom":"Cipières","code":"06041","codeDepartement":"06","codeRegion":"93","codesPostaux":["06620"],"population":391},"geometry":{"type":"Point","coordinates":[6.9306939550173,43.774694602076124]}},{"type":"Feature","properties":{"nom":"Clans","code":"06042","codeDepartement":"06","codeRegion":"93","codesPostaux":["06420"],"population":614},"geometry":{"type":"Point","coordinates":[7.174416326180263,44.00639395278973]}},{"type":"Feature","properties":{"nom":"Coaraze","code":"06043","codeDepartement":"06","codeRegion":"93","codesPostaux":["06390"],"population":837},"geometry":{"type":"Point","coordinates":[7.304363783908042,43.87197738850577]}},{"type":"Feature","properties":{"nom":"La Colle-sur-Loup","code":"06044","codeDepartement":"06","codeRegion":"93","codesPostaux":["06480"],"population":7866},"geometry":{"type":"Point","coordinates":[7.097490405940593,43.686803633663416]}},{"type":"Feature","properties":{"nom":"Collongues","code":"06045","codeDepartement":"06","codeRegion":"93","codesPostaux":["06910"],"population":87},"geometry":{"type":"Point","coordinates":[6.862588872017357,43.892934616052045]}},{"type":"Feature","properties":{"nom":"Colomars","code":"06046","codeDepartement":"06","codeRegion":"93","codesPostaux":["06670"],"population":3397},"geometry":{"type":"Point","coordinates":[7.224825115942035,43.757117818840584]}},{"type":"Feature","properties":{"nom":"Conségudes","code":"06047","codeDepartement":"06","codeRegion":"93","codesPostaux":["06510"],"population":103},"geometry":{"type":"Point","coordinates":[7.0436228102189755,43.84297189051096]}},{"type":"Feature","properties":{"nom":"Contes","code":"06048","codeDepartement":"06","codeRegion":"93","codesPostaux":["06390"],"population":7420},"geometry":{"type":"Point","coordinates":[7.324925516616308,43.80859966012081]}},{"type":"Feature","properties":{"nom":"Courmes","code":"06049","codeDepartement":"06","codeRegion":"93","codesPostaux":["06620"],"population":125},"geometry":{"type":"Point","coordinates":[7.011171262773724,43.75487248905113]}},{"type":"Feature","properties":{"nom":"Coursegoules","code":"06050","codeDepartement":"06","codeRegion":"93","codesPostaux":["06140"],"population":528},"geometry":{"type":"Point","coordinates":[7.037705501022497,43.787934597137024]}},{"type":"Feature","properties":{"nom":"La Croix-sur-Roudoule","code":"06051","codeDepartement":"06","codeRegion":"93","codesPostaux":["06260"],"population":98},"geometry":{"type":"Point","coordinates":[6.870359641891894,44.00283961824324]}},{"type":"Feature","properties":{"nom":"Cuébris","code":"06052","codeDepartement":"06","codeRegion":"93","codesPostaux":["06910"],"population":168},"geometry":{"type":"Point","coordinates":[7.005764394218131,43.891152532194496]}},{"type":"Feature","properties":{"nom":"Daluis","code":"06053","codeDepartement":"06","codeRegion":"93","codesPostaux":["06470"],"population":146},"geometry":{"type":"Point","coordinates":[6.815314042307694,44.038907192307676]}},{"type":"Feature","properties":{"nom":"Drap","code":"06054","codeDepartement":"06","codeRegion":"93","codesPostaux":["06340"],"population":4508},"geometry":{"type":"Point","coordinates":[7.340393624999998,43.75968238851351]}},{"type":"Feature","properties":{"nom":"Duranus","code":"06055","codeDepartement":"06","codeRegion":"93","codesPostaux":["06670"],"population":135},"geometry":{"type":"Point","coordinates":[7.2863023078602716,43.89889648689958]}},{"type":"Feature","properties":{"nom":"Entraunes","code":"06056","codeDepartement":"06","codeRegion":"93","codesPostaux":["06470"],"population":128},"geometry":{"type":"Point","coordinates":[6.756793695090443,44.22863805167959]}},{"type":"Feature","properties":{"nom":"L'Escarène","code":"06057","codeDepartement":"06","codeRegion":"93","codesPostaux":["06440"],"population":2507},"geometry":{"type":"Point","coordinates":[7.362892897515526,43.83402230590062]}},{"type":"Feature","properties":{"nom":"Escragnolles","code":"06058","codeDepartement":"06","codeRegion":"93","codesPostaux":["06460"],"population":612},"geometry":{"type":"Point","coordinates":[6.774030955342903,43.72813084370019]}},{"type":"Feature","properties":{"nom":"Èze","code":"06059","codeDepartement":"06","codeRegion":"93","codesPostaux":["06360"],"population":2252},"geometry":{"type":"Point","coordinates":[7.364180413043484,43.727846855072464]}},{"type":"Feature","properties":{"nom":"Falicon","code":"06060","codeDepartement":"06","codeRegion":"93","codesPostaux":["06950"],"population":1978},"geometry":{"type":"Point","coordinates":[7.2659154193548385,43.74979839516132]}},{"type":"Feature","properties":{"nom":"Les Ferres","code":"06061","codeDepartement":"06","codeRegion":"93","codesPostaux":["06510"],"population":106},"geometry":{"type":"Point","coordinates":[7.096347068181824,43.84261243434345]}},{"type":"Feature","properties":{"nom":"Fontan","code":"06062","codeDepartement":"06","codeRegion":"93","codesPostaux":["06540"],"population":352},"geometry":{"type":"Point","coordinates":[7.548919849431825,44.022536872159066]}},{"type":"Feature","properties":{"nom":"Gars","code":"06063","codeDepartement":"06","codeRegion":"93","codesPostaux":["06850"],"population":71},"geometry":{"type":"Point","coordinates":[6.822635499999995,43.86237143658534]}},{"type":"Feature","properties":{"nom":"Gattières","code":"06064","codeDepartement":"06","codeRegion":"93","codesPostaux":["06510"],"population":4115},"geometry":{"type":"Point","coordinates":[7.159063112936342,43.771184445585256]}},{"type":"Feature","properties":{"nom":"La Gaude","code":"06065","codeDepartement":"06","codeRegion":"93","codesPostaux":["06610"],"population":6430},"geometry":{"type":"Point","coordinates":[7.1560834179431065,43.71964565645514]}},{"type":"Feature","properties":{"nom":"Gilette","code":"06066","codeDepartement":"06","codeRegion":"93","codesPostaux":["06830"],"population":1566},"geometry":{"type":"Point","coordinates":[7.1565402227488075,43.85350359715639]}},{"type":"Feature","properties":{"nom":"Gorbio","code":"06067","codeDepartement":"06","codeRegion":"93","codesPostaux":["06500"],"population":1468},"geometry":{"type":"Point","coordinates":[7.449271197452225,43.784556614649695]}},{"type":"Feature","properties":{"nom":"Gourdon","code":"06068","codeDepartement":"06","codeRegion":"93","codesPostaux":["06620"],"population":387},"geometry":{"type":"Point","coordinates":[6.96676714,43.7227503854545]}},{"type":"Feature","properties":{"nom":"Grasse","code":"06069","codeDepartement":"06","codeRegion":"93","codesPostaux":["06520","06130"],"population":50677},"geometry":{"type":"Point","coordinates":[6.937010678526056,43.65523257814487]}},{"type":"Feature","properties":{"nom":"Gréolières","code":"06070","codeDepartement":"06","codeRegion":"93","codesPostaux":["06620"],"population":596},"geometry":{"type":"Point","coordinates":[6.918449339464879,43.79889072909698]}},{"type":"Feature","properties":{"nom":"Guillaumes","code":"06071","codeDepartement":"06","codeRegion":"93","codesPostaux":["06470"],"population":636},"geometry":{"type":"Point","coordinates":[6.870580434027773,44.07925929513888]}},{"type":"Feature","properties":{"nom":"Ilonse","code":"06072","codeDepartement":"06","codeRegion":"93","codesPostaux":["06420"],"population":193},"geometry":{"type":"Point","coordinates":[7.089144386243385,44.03419511904761]}},{"type":"Feature","properties":{"nom":"Isola","code":"06073","codeDepartement":"06","codeRegion":"93","codesPostaux":["06420"],"population":697},"geometry":{"type":"Point","coordinates":[7.079995810318667,44.188114007587245]}},{"type":"Feature","properties":{"nom":"Lantosque","code":"06074","codeDepartement":"06","codeRegion":"93","codesPostaux":["06450"],"population":1313},"geometry":{"type":"Point","coordinates":[7.301003263823068,43.96823376461301]}},{"type":"Feature","properties":{"nom":"Levens","code":"06075","codeDepartement":"06","codeRegion":"93","codesPostaux":["06670"],"population":4703},"geometry":{"type":"Point","coordinates":[7.240574210332104,43.84577043173431]}},{"type":"Feature","properties":{"nom":"Lieuche","code":"06076","codeDepartement":"06","codeRegion":"93","codesPostaux":["06260"],"population":45},"geometry":{"type":"Point","coordinates":[7.043502240437158,44.00505193989072]}},{"type":"Feature","properties":{"nom":"Lucéram","code":"06077","codeDepartement":"06","codeRegion":"93","codesPostaux":["06440"],"population":1285},"geometry":{"type":"Point","coordinates":[7.352283093046037,43.89062871792365]}},{"type":"Feature","properties":{"nom":"Malaussène","code":"06078","codeDepartement":"06","codeRegion":"93","codesPostaux":["06710"],"population":308},"geometry":{"type":"Point","coordinates":[7.146269187074829,43.91472963945578]}},{"type":"Feature","properties":{"nom":"Mandelieu-la-Napoule","code":"06079","codeDepartement":"06","codeRegion":"93","codesPostaux":["06210"],"population":22168},"geometry":{"type":"Point","coordinates":[6.926191358189086,43.52985100133156]}},{"type":"Feature","properties":{"nom":"Marie","code":"06080","codeDepartement":"06","codeRegion":"93","codesPostaux":["06420"],"population":104},"geometry":{"type":"Point","coordinates":[7.161622479310345,44.032558462068984]}},{"type":"Feature","properties":{"nom":"Le Mas","code":"06081","codeDepartement":"06","codeRegion":"93","codesPostaux":["06910"],"population":157},"geometry":{"type":"Point","coordinates":[6.866752895575227,43.84055306194689]}},{"type":"Feature","properties":{"nom":"Massoins","code":"06082","codeDepartement":"06","codeRegion":"93","codesPostaux":["06710"],"population":103},"geometry":{"type":"Point","coordinates":[7.1303160398860355,43.949790632478646]}},{"type":"Feature","properties":{"nom":"Menton","code":"06083","codeDepartement":"06","codeRegion":"93","codesPostaux":["06500"],"population":28486},"geometry":{"type":"Point","coordinates":[7.4909888720930295,43.79673956847543]}},{"type":"Feature","properties":{"nom":"Mouans-Sartoux","code":"06084","codeDepartement":"06","codeRegion":"93","codesPostaux":["06370"],"population":9668},"geometry":{"type":"Point","coordinates":[6.970347774545454,43.62358227272727]}},{"type":"Feature","properties":{"nom":"Mougins","code":"06085","codeDepartement":"06","codeRegion":"93","codesPostaux":["06250"],"population":19047},"geometry":{"type":"Point","coordinates":[6.997301155440413,43.59350418393788]}},{"type":"Feature","properties":{"nom":"Moulinet","code":"06086","codeDepartement":"06","codeRegion":"93","codesPostaux":["06380"],"population":281},"geometry":{"type":"Point","coordinates":[7.40958822961373,43.94664566738193]}},{"type":"Feature","properties":{"nom":"Les Mujouls","code":"06087","codeDepartement":"06","codeRegion":"93","codesPostaux":["06910"],"population":49},"geometry":{"type":"Point","coordinates":[6.85727362393162,43.87287256581201]}},{"type":"Feature","properties":{"nom":"Nice","code":"06088","codeDepartement":"06","codeRegion":"93","codesPostaux":["06300","06000","06100","06200"],"population":342637},"geometry":{"type":"Point","coordinates":[7.265147323053191,43.71233991904395]}},{"type":"Feature","properties":{"nom":"Opio","code":"06089","codeDepartement":"06","codeRegion":"93","codesPostaux":["06650"],"population":2206},"geometry":{"type":"Point","coordinates":[7.005799223844283,43.65908827250607]}},{"type":"Feature","properties":{"nom":"Pégomas","code":"06090","codeDepartement":"06","codeRegion":"93","codesPostaux":["06580"],"population":7909},"geometry":{"type":"Point","coordinates":[6.919503205211725,43.58699644951136]}},{"type":"Feature","properties":{"nom":"Peille","code":"06091","codeDepartement":"06","codeRegion":"93","codesPostaux":["06440"],"population":2365},"geometry":{"type":"Point","coordinates":[7.4066534414607945,43.809304964554244]}},{"type":"Feature","properties":{"nom":"Peillon","code":"06092","codeDepartement":"06","codeRegion":"93","codesPostaux":["06440"],"population":1470},"geometry":{"type":"Point","coordinates":[7.365775769556034,43.77144520507405]}},{"type":"Feature","properties":{"nom":"La Penne","code":"06093","codeDepartement":"06","codeRegion":"93","codesPostaux":["06260"],"population":229},"geometry":{"type":"Point","coordinates":[6.9386977763819155,43.922556726130665]}},{"type":"Feature","properties":{"nom":"Péone","code":"06094","codeDepartement":"06","codeRegion":"93","codesPostaux":["06470"],"population":798},"geometry":{"type":"Point","coordinates":[6.922905151785717,44.133055497023804]}},{"type":"Feature","properties":{"nom":"Peymeinade","code":"06095","codeDepartement":"06","codeRegion":"93","codesPostaux":["06530"],"population":8119},"geometry":{"type":"Point","coordinates":[6.8802783974359,43.63225543803421]}},{"type":"Feature","properties":{"nom":"Pierlas","code":"06096","codeDepartement":"06","codeRegion":"93","codesPostaux":["06260"],"population":101},"geometry":{"type":"Point","coordinates":[7.017117976562501,44.03030687499999]}},{"type":"Feature","properties":{"nom":"Pierrefeu","code":"06097","codeDepartement":"06","codeRegion":"93","codesPostaux":["06910"],"population":315},"geometry":{"type":"Point","coordinates":[7.075110517431188,43.88492963853213]}},{"type":"Feature","properties":{"nom":"Puget-Rostang","code":"06098","codeDepartement":"06","codeRegion":"93","codesPostaux":["06260"],"population":131},"geometry":{"type":"Point","coordinates":[6.929250658045976,43.99965026724134]}},{"type":"Feature","properties":{"nom":"Puget-Théniers","code":"06099","codeDepartement":"06","codeRegion":"93","codesPostaux":["06260"],"population":1900},"geometry":{"type":"Point","coordinates":[6.906586974193549,43.952481570967755]}},{"type":"Feature","properties":{"nom":"Revest-les-Roches","code":"06100","codeDepartement":"06","codeRegion":"93","codesPostaux":["06830"],"population":233},"geometry":{"type":"Point","coordinates":[7.16430822625698,43.87971508659218]}},{"type":"Feature","properties":{"nom":"Rigaud","code":"06101","codeDepartement":"06","codeRegion":"93","codesPostaux":["06260"],"population":208},"geometry":{"type":"Point","coordinates":[6.975176960526315,43.997024845394755]}},{"type":"Feature","properties":{"nom":"Rimplas","code":"06102","codeDepartement":"06","codeRegion":"93","codesPostaux":["06420"],"population":90},"geometry":{"type":"Point","coordinates":[7.143876657754007,44.09743788235296]}},{"type":"Feature","properties":{"nom":"Roquebillière","code":"06103","codeDepartement":"06","codeRegion":"93","codesPostaux":["06450"],"population":1822},"geometry":{"type":"Point","coordinates":[7.294173512875537,44.02711050000001]}},{"type":"Feature","properties":{"nom":"Roquebrune-Cap-Martin","code":"06104","codeDepartement":"06","codeRegion":"93","codesPostaux":["06190"],"population":12903},"geometry":{"type":"Point","coordinates":[7.464331100884955,43.76128054690266]}},{"type":"Feature","properties":{"nom":"Roquefort-les-Pins","code":"06105","codeDepartement":"06","codeRegion":"93","codesPostaux":["06330"],"population":6695},"geometry":{"type":"Point","coordinates":[7.05104562409639,43.67740404096384]}},{"type":"Feature","properties":{"nom":"Roquestéron","code":"06106","codeDepartement":"06","codeRegion":"93","codesPostaux":["06910"],"population":583},"geometry":{"type":"Point","coordinates":[7.020761679867984,43.8707883927393]}},{"type":"Feature","properties":{"nom":"La Roque-en-Provence","code":"06107","codeDepartement":"06","codeRegion":"93","codesPostaux":["06910"],"population":77},"geometry":{"type":"Point","coordinates":[6.993110367724871,43.854453203703734]}},{"type":"Feature","properties":{"nom":"La Roquette-sur-Siagne","code":"06108","codeDepartement":"06","codeRegion":"93","codesPostaux":["06550"],"population":5393},"geometry":{"type":"Point","coordinates":[6.953776990291262,43.58493270388349]}},{"type":"Feature","properties":{"nom":"La Roquette-sur-Var","code":"06109","codeDepartement":"06","codeRegion":"93","codesPostaux":["06670"],"population":923},"geometry":{"type":"Point","coordinates":[7.204950150862064,43.82732210344829]}},{"type":"Feature","properties":{"nom":"Roubion","code":"06110","codeDepartement":"06","codeRegion":"93","codesPostaux":["06420"],"population":120},"geometry":{"type":"Point","coordinates":[7.0261638159722235,44.11513227777773]}},{"type":"Feature","properties":{"nom":"Roure","code":"06111","codeDepartement":"06","codeRegion":"93","codesPostaux":["06420"],"population":200},"geometry":{"type":"Point","coordinates":[7.067775772058819,44.119710147058825]}},{"type":"Feature","properties":{"nom":"Le Rouret","code":"06112","codeDepartement":"06","codeRegion":"93","codesPostaux":["06650"],"population":4010},"geometry":{"type":"Point","coordinates":[7.00872370408163,43.67992920153059]}},{"type":"Feature","properties":{"nom":"Sainte-Agnès","code":"06113","codeDepartement":"06","codeRegion":"93","codesPostaux":["06500"],"population":1271},"geometry":{"type":"Point","coordinates":[7.463790775252529,43.80614653030302]}},{"type":"Feature","properties":{"nom":"Saint-André-de-la-Roche","code":"06114","codeDepartement":"06","codeRegion":"93","codesPostaux":["06730"],"population":5340},"geometry":{"type":"Point","coordinates":[7.287173717821783,43.745887668316854]}},{"type":"Feature","properties":{"nom":"Saint-Antonin","code":"06115","codeDepartement":"06","codeRegion":"93","codesPostaux":["06260"],"population":95},"geometry":{"type":"Point","coordinates":[6.978701385350321,43.9080455477707]}},{"type":"Feature","properties":{"nom":"Saint-Auban","code":"06116","codeDepartement":"06","codeRegion":"93","codesPostaux":["06850"],"population":227},"geometry":{"type":"Point","coordinates":[6.753449447638601,43.83404870020534]}},{"type":"Feature","properties":{"nom":"Saint-Blaise","code":"06117","codeDepartement":"06","codeRegion":"93","codesPostaux":["06670"],"population":1013},"geometry":{"type":"Point","coordinates":[7.227823680555559,43.81092327083329]}},{"type":"Feature","properties":{"nom":"Saint-Cézaire-sur-Siagne","code":"06118","codeDepartement":"06","codeRegion":"93","codesPostaux":["06530"],"population":3913},"geometry":{"type":"Point","coordinates":[6.793184496746206,43.65787494577005]}},{"type":"Feature","properties":{"nom":"Saint-Dalmas-le-Selvage","code":"06119","codeDepartement":"06","codeRegion":"93","codesPostaux":["06660"],"population":122},"geometry":{"type":"Point","coordinates":[6.847947207476643,44.28734184112152]}},{"type":"Feature","properties":{"nom":"Saint-Étienne-de-Tinée","code":"06120","codeDepartement":"06","codeRegion":"93","codesPostaux":["06660"],"population":1551},"geometry":{"type":"Point","coordinates":[6.921973622359161,44.26160337147892]}},{"type":"Feature","properties":{"nom":"Saint-Jean-Cap-Ferrat","code":"06121","codeDepartement":"06","codeRegion":"93","codesPostaux":["06230"],"population":1618},"geometry":{"type":"Point","coordinates":[7.3325875782312915,43.687128408163275]}},{"type":"Feature","properties":{"nom":"Saint-Jeannet","code":"06122","codeDepartement":"06","codeRegion":"93","codesPostaux":["06640"],"population":4099},"geometry":{"type":"Point","coordinates":[7.1415474191419115,43.7593761336634]}},{"type":"Feature","properties":{"nom":"Saint-Laurent-du-Var","code":"06123","codeDepartement":"06","codeRegion":"93","codesPostaux":["06700"],"population":28645},"geometry":{"type":"Point","coordinates":[7.1787391696658105,43.6813033881748]}},{"type":"Feature","properties":{"nom":"Saint-Léger","code":"06124","codeDepartement":"06","codeRegion":"93","codesPostaux":["06260"],"population":57},"geometry":{"type":"Point","coordinates":[6.823015365079361,44.00062102380953]}},{"type":"Feature","properties":{"nom":"Saint-Martin-d'Entraunes","code":"06125","codeDepartement":"06","codeRegion":"93","codesPostaux":["06470"],"population":131},"geometry":{"type":"Point","coordinates":[6.742558423529415,44.1505520529412]}},{"type":"Feature","properties":{"nom":"Saint-Martin-du-Var","code":"06126","codeDepartement":"06","codeRegion":"93","codesPostaux":["06670"],"population":2940},"geometry":{"type":"Point","coordinates":[7.202587843283581,43.81981026492538]}},{"type":"Feature","properties":{"nom":"Saint-Martin-Vésubie","code":"06127","codeDepartement":"06","codeRegion":"93","codesPostaux":["06450"],"population":1394},"geometry":{"type":"Point","coordinates":[7.303513881152464,44.091503024009626]}},{"type":"Feature","properties":{"nom":"Saint-Paul-de-Vence","code":"06128","codeDepartement":"06","codeRegion":"93","codesPostaux":["06570"],"population":3456},"geometry":{"type":"Point","coordinates":[7.121305794573648,43.6925606627907]}},{"type":"Feature","properties":{"nom":"Saint-Sauveur-sur-Tinée","code":"06129","codeDepartement":"06","codeRegion":"93","codesPostaux":["06420"],"population":323},"geometry":{"type":"Point","coordinates":[7.111223166077738,44.11041081978798]}},{"type":"Feature","properties":{"nom":"Saint-Vallier-de-Thiey","code":"06130","codeDepartement":"06","codeRegion":"93","codesPostaux":["06460"],"population":3560},"geometry":{"type":"Point","coordinates":[6.851410272925766,43.701811181222745]}},{"type":"Feature","properties":{"nom":"Sallagriffon","code":"06131","codeDepartement":"06","codeRegion":"93","codesPostaux":["06910"],"population":47},"geometry":{"type":"Point","coordinates":[6.911498332142855,43.87798591428572]}},{"type":"Feature","properties":{"nom":"Saorge","code":"06132","codeDepartement":"06","codeRegion":"93","codesPostaux":["06540"],"population":461},"geometry":{"type":"Point","coordinates":[7.564557302935013,43.98716194758905]}},{"type":"Feature","properties":{"nom":"Sauze","code":"06133","codeDepartement":"06","codeRegion":"93","codesPostaux":["06470"],"population":74},"geometry":{"type":"Point","coordinates":[6.808506697560974,44.08050723414637]}},{"type":"Feature","properties":{"nom":"Séranon","code":"06134","codeDepartement":"06","codeRegion":"93","codesPostaux":["06750"],"population":506},"geometry":{"type":"Point","coordinates":[6.6929453832021055,43.76606114435697]}},{"type":"Feature","properties":{"nom":"Sigale","code":"06135","codeDepartement":"06","codeRegion":"93","codesPostaux":["06910"],"population":201},"geometry":{"type":"Point","coordinates":[6.964143602112679,43.87601522887323]}},{"type":"Feature","properties":{"nom":"Sospel","code":"06136","codeDepartement":"06","codeRegion":"93","codesPostaux":["06380"],"population":3815},"geometry":{"type":"Point","coordinates":[7.444793527388531,43.88280824585982]}},{"type":"Feature","properties":{"nom":"Spéracèdes","code":"06137","codeDepartement":"06","codeRegion":"93","codesPostaux":["06530"],"population":1317},"geometry":{"type":"Point","coordinates":[6.8614561304347825,43.650735590579714]}},{"type":"Feature","properties":{"nom":"Théoule-sur-Mer","code":"06138","codeDepartement":"06","codeRegion":"93","codesPostaux":["06590"],"population":1476},"geometry":{"type":"Point","coordinates":[6.9369197208589,43.495991384969294]}},{"type":"Feature","properties":{"nom":"Thiéry","code":"06139","codeDepartement":"06","codeRegion":"93","codesPostaux":["06710"],"population":107},"geometry":{"type":"Point","coordinates":[7.0376944088235325,43.97279641470589]}},{"type":"Feature","properties":{"nom":"Le Tignet","code":"06140","codeDepartement":"06","codeRegion":"93","codesPostaux":["06530"],"population":3228},"geometry":{"type":"Point","coordinates":[6.854969772845942,43.6215033446475]}},{"type":"Feature","properties":{"nom":"Toudon","code":"06141","codeDepartement":"06","codeRegion":"93","codesPostaux":["06830"],"population":338},"geometry":{"type":"Point","coordinates":[7.106360349823326,43.88029766077739]}},{"type":"Feature","properties":{"nom":"Touët-de-l'Escarène","code":"06142","codeDepartement":"06","codeRegion":"93","codesPostaux":["06440"],"population":285},"geometry":{"type":"Point","coordinates":[7.376847316742086,43.852354454751094]}},{"type":"Feature","properties":{"nom":"Touët-sur-Var","code":"06143","codeDepartement":"06","codeRegion":"93","codesPostaux":["06710"],"population":673},"geometry":{"type":"Point","coordinates":[7.014612970394734,43.945119983552615]}},{"type":"Feature","properties":{"nom":"La Tour","code":"06144","codeDepartement":"06","codeRegion":"93","codesPostaux":["06420"],"population":573},"geometry":{"type":"Point","coordinates":[7.2043302938230385,43.95532313355589]}},{"type":"Feature","properties":{"nom":"Tourette-du-Château","code":"06145","codeDepartement":"06","codeRegion":"93","codesPostaux":["06830"],"population":128},"geometry":{"type":"Point","coordinates":[7.136938393129779,43.87445433015272]}},{"type":"Feature","properties":{"nom":"Tournefort","code":"06146","codeDepartement":"06","codeRegion":"93","codesPostaux":["06420"],"population":164},"geometry":{"type":"Point","coordinates":[7.159222994236312,43.941143942363105]}},{"type":"Feature","properties":{"nom":"Tourrette-Levens","code":"06147","codeDepartement":"06","codeRegion":"93","codesPostaux":["06690"],"population":4919},"geometry":{"type":"Point","coordinates":[7.27339880350877,43.786563922806984]}},{"type":"Feature","properties":{"nom":"Tourrettes-sur-Loup","code":"06148","codeDepartement":"06","codeRegion":"93","codesPostaux":["06140"],"population":3988},"geometry":{"type":"Point","coordinates":[7.046335415032679,43.71483698529413]}},{"type":"Feature","properties":{"nom":"La Trinité","code":"06149","codeDepartement":"06","codeRegion":"93","codesPostaux":["06340"],"population":10083},"geometry":{"type":"Point","coordinates":[7.341465652252257,43.74483239459458]}},{"type":"Feature","properties":{"nom":"La Turbie","code":"06150","codeDepartement":"06","codeRegion":"93","codesPostaux":["06320"],"population":3105},"geometry":{"type":"Point","coordinates":[7.3979012545045,43.74536080405413]}},{"type":"Feature","properties":{"nom":"Utelle","code":"06151","codeDepartement":"06","codeRegion":"93","codesPostaux":["06450"],"population":853},"geometry":{"type":"Point","coordinates":[7.23992341453674,43.93700380750801]}},{"type":"Feature","properties":{"nom":"Valbonne","code":"06152","codeDepartement":"06","codeRegion":"93","codesPostaux":["06560"],"population":13070},"geometry":{"type":"Point","coordinates":[7.034610718015669,43.62949399216711]}},{"type":"Feature","properties":{"nom":"Valdeblore","code":"06153","codeDepartement":"06","codeRegion":"93","codesPostaux":["06420"],"population":851},"geometry":{"type":"Point","coordinates":[7.197490222416814,44.12065714886164]}},{"type":"Feature","properties":{"nom":"Valderoure","code":"06154","codeDepartement":"06","codeRegion":"93","codesPostaux":["06750"],"population":441},"geometry":{"type":"Point","coordinates":[6.708291889705883,43.79009556985292]}},{"type":"Feature","properties":{"nom":"Vallauris","code":"06155","codeDepartement":"06","codeRegion":"93","codesPostaux":["06220"],"population":26618},"geometry":{"type":"Point","coordinates":[7.0615048427672935,43.575153213836444]}},{"type":"Feature","properties":{"nom":"Venanson","code":"06156","codeDepartement":"06","codeRegion":"93","codesPostaux":["06450"],"population":157},"geometry":{"type":"Point","coordinates":[7.243530513422818,44.039445510067104]}},{"type":"Feature","properties":{"nom":"Vence","code":"06157","codeDepartement":"06","codeRegion":"93","codesPostaux":["06140"],"population":18599},"geometry":{"type":"Point","coordinates":[7.106763772290807,43.73294837585731]}},{"type":"Feature","properties":{"nom":"Villars-sur-Var","code":"06158","codeDepartement":"06","codeRegion":"93","codesPostaux":["06710"],"population":757},"geometry":{"type":"Point","coordinates":[7.075788373188407,43.95065486231877]}},{"type":"Feature","properties":{"nom":"Villefranche-sur-Mer","code":"06159","codeDepartement":"06","codeRegion":"93","codesPostaux":["06230"],"population":5098},"geometry":{"type":"Point","coordinates":[7.319528715575628,43.70751943566591]}},{"type":"Feature","properties":{"nom":"Villeneuve-d'Entraunes","code":"06160","codeDepartement":"06","codeRegion":"93","codesPostaux":["06470"],"population":74},"geometry":{"type":"Point","coordinates":[6.788379474489797,44.123178612244885]}},{"type":"Feature","properties":{"nom":"Villeneuve-Loubet","code":"06161","codeDepartement":"06","codeRegion":"93","codesPostaux":["06270"],"population":14672},"geometry":{"type":"Point","coordinates":[7.111073585542167,43.6480274048193]}},{"type":"Feature","properties":{"nom":"La Brigue","code":"06162","codeDepartement":"06","codeRegion":"93","codesPostaux":["06430"],"population":698},"geometry":{"type":"Point","coordinates":[7.648710193600004,44.064270923200006]}},{"type":"Feature","properties":{"nom":"Tende","code":"06163","codeDepartement":"06","codeRegion":"93","codesPostaux":["06430"],"population":2184},"geometry":{"type":"Point","coordinates":[7.557285811868687,44.09874230555555]}}]}