{"type":"FeatureCollection","features":[{"type":"Feature","properties":{"nom":"Aigues-Juntes","code":"09001","codeDepartement":"09","codeRegion":"76","codesPostaux":["09240"],"population":65},"geometry":{"type":"Point","coordinates":[1.4742560681818184,43.04889579545453]}},{"type":"Feature","properties":{"nom":"Aigues-Vives","code":"09002","codeDepartement":"09","codeRegion":"76","codesPostaux":["09600"],"population":654},"geometry":{"type":"Point","coordinates":[1.876192588235295,43.00107749579833]}},{"type":"Feature","properties":{"nom":"L'Aiguillon","code":"09003","codeDepartement":"09","codeRegion":"76","codesPostaux":["09300"],"population":424},"geometry":{"type":"Point","coordinates":[1.9055416809815942,42.911937116564424]}},{"type":"Feature","properties":{"nom":"Albiès","code":"09004","codeDepartement":"09","codeRegion":"76","codesPostaux":["09310"],"population":125},"geometry":{"type":"Point","coordinates":[1.6974352012987015,42.76141420779219]}},{"type":"Feature","properties":{"nom":"Aleu","code":"09005","codeDepartement":"09","codeRegion":"76","codesPostaux":["09320"],"population":126},"geometry":{"type":"Point","coordinates":[1.2679518141891897,42.899330192567575]}},{"type":"Feature","properties":{"nom":"Alliat","code":"09006","codeDepartement":"09","codeRegion":"76","codesPostaux":["09400"],"population":53},"geometry":{"type":"Point","coordinates":[1.5822115502958594,42.81669658579883]}},{"type":"Feature","properties":{"nom":"Allières","code":"09007","codeDepartement":"09","codeRegion":"76","codesPostaux":["09240"],"population":71},"geometry":{"type":"Point","coordinates":[1.3644993977272721,43.04323719318183]}},{"type":"Feature","properties":{"nom":"Alos","code":"09008","codeDepartement":"09","codeRegion":"76","codesPostaux":["09200"],"population":115},"geometry":{"type":"Point","coordinates":[1.1271789935897438,42.89906564102562]}},{"type":"Feature","properties":{"nom":"Alzen","code":"09009","codeDepartement":"09","codeRegion":"76","codesPostaux":["09240"],"population":250},"geometry":{"type":"Point","coordinates":[1.4528711865079356,42.984644567460315]}},{"type":"Feature","properties":{"nom":"Antras","code":"09011","codeDepartement":"09","codeRegion":"76","codesPostaux":["09800"],"population":65},"geometry":{"type":"Point","coordinates":[0.9012985459770112,42.87353400574713]}},{"type":"Feature","properties":{"nom":"Appy","code":"09012","codeDepartement":"09","codeRegion":"76","codesPostaux":["09250"],"population":24},"geometry":{"type":"Point","coordinates":[1.743295287425151,42.8015351497006]}},{"type":"Feature","properties":{"nom":"Arabaux","code":"09013","codeDepartement":"09","codeRegion":"76","codesPostaux":["09000"],"population":73},"geometry":{"type":"Point","coordinates":[1.6316468432835831,42.97935117910446]}},{"type":"Feature","properties":{"nom":"Argein","code":"09014","codeDepartement":"09","codeRegion":"76","codesPostaux":["09800"],"population":196},"geometry":{"type":"Point","coordinates":[0.9947750210526317,42.92620369473687]}},{"type":"Feature","properties":{"nom":"Arignac","code":"09015","codeDepartement":"09","codeRegion":"76","codesPostaux":["09400"],"population":710},"geometry":{"type":"Point","coordinates":[1.5952964015748037,42.87083599999999]}},{"type":"Feature","properties":{"nom":"Arnave","code":"09016","codeDepartement":"09","codeRegion":"76","codesPostaux":["09400"],"population":202},"geometry":{"type":"Point","coordinates":[1.6444150287356323,42.85020144252874]}},{"type":"Feature","properties":{"nom":"Arrien-en-Bethmale","code":"09017","codeDepartement":"09","codeRegion":"76","codesPostaux":["09800"],"population":111},"geometry":{"type":"Point","coordinates":[1.0507020617977523,42.88658354775281]}},{"type":"Feature","properties":{"nom":"Arrout","code":"09018","codeDepartement":"09","codeRegion":"76","codesPostaux":["09800"],"population":83},"geometry":{"type":"Point","coordinates":[1.0189911249999997,42.94990650961539]}},{"type":"Feature","properties":{"nom":"Artigat","code":"09019","codeDepartement":"09","codeRegion":"76","codesPostaux":["09130"],"population":568},"geometry":{"type":"Point","coordinates":[1.4507008928571432,43.14252732417582]}},{"type":"Feature","properties":{"nom":"Artigues","code":"09020","codeDepartement":"09","codeRegion":"76","codesPostaux":["09460"],"population":55},"geometry":{"type":"Point","coordinates":[2.0393776010362705,42.688342082901535]}},{"type":"Feature","properties":{"nom":"Artix","code":"09021","codeDepartement":"09","codeRegion":"76","codesPostaux":["09120"],"population":151},"geometry":{"type":"Point","coordinates":[1.5717300416666664,43.06652884895832]}},{"type":"Feature","properties":{"nom":"Arvigna","code":"09022","codeDepartement":"09","codeRegion":"76","codesPostaux":["09100"],"population":227},"geometry":{"type":"Point","coordinates":[1.7218148130841127,43.06000906542056]}},{"type":"Feature","properties":{"nom":"Ascou","code":"09023","codeDepartement":"09","codeRegion":"76","codesPostaux":["09110"],"population":133},"geometry":{"type":"Point","coordinates":[1.9201056369047622,42.71474914880954]}},{"type":"Feature","properties":{"nom":"Aston","code":"09024","codeDepartement":"09","codeRegion":"76","codesPostaux":["09310"],"population":225},"geometry":{"type":"Point","coordinates":[1.6624952461928935,42.687894340101515]}},{"type":"Feature","properties":{"nom":"Aucazein","code":"09025","codeDepartement":"09","codeRegion":"76","codesPostaux":["09800"],"population":61},"geometry":{"type":"Point","coordinates":[0.9695830701754387,42.92843250292398]}},{"type":"Feature","properties":{"nom":"Audressein","code":"09026","codeDepartement":"09","codeRegion":"76","codesPostaux":["09800"],"population":137},"geometry":{"type":"Point","coordinates":[1.018349051282052,42.92629678846155]}},{"type":"Feature","properties":{"nom":"Augirein","code":"09027","codeDepartement":"09","codeRegion":"76","codesPostaux":["09800"],"population":75},"geometry":{"type":"Point","coordinates":[0.9163385199999998,42.91951156571428]}},{"type":"Feature","properties":{"nom":"Aulus-les-Bains","code":"09029","codeDepartement":"09","codeRegion":"76","codesPostaux":["09140"],"population":155},"geometry":{"type":"Point","coordinates":[1.3542690137931028,42.76762117931035]}},{"type":"Feature","properties":{"nom":"Auzat","code":"09030","codeDepartement":"09","codeRegion":"76","codesPostaux":["09220"],"population":498},"geometry":{"type":"Point","coordinates":[1.4531465910112353,42.710793892134795]}},{"type":"Feature","properties":{"nom":"Axiat","code":"09031","codeDepartement":"09","codeRegion":"76","codesPostaux":["09250"],"population":42},"geometry":{"type":"Point","coordinates":[1.7545690971428567,42.79564173714286]}},{"type":"Feature","properties":{"nom":"Ax-les-Thermes","code":"09032","codeDepartement":"09","codeRegion":"76","codesPostaux":["09110"],"population":1223},"geometry":{"type":"Point","coordinates":[1.8313389500000004,42.69376460714286]}},{"type":"Feature","properties":{"nom":"Bagert","code":"09033","codeDepartement":"09","codeRegion":"76","codesPostaux":["09230","09160"],"population":38},"geometry":{"type":"Point","coordinates":[1.0718186689189189,43.07893643243244]}},{"type":"Feature","properties":{"nom":"Balacet","code":"09034","codeDepartement":"09","codeRegion":"76","codesPostaux":["09800"],"population":24},"geometry":{"type":"Point","coordinates":[0.9825057058823534,42.88532682352939]}},{"type":"Feature","properties":{"nom":"Balaguères","code":"09035","codeDepartement":"09","codeRegion":"76","codesPostaux":["09800"],"population":197},"geometry":{"type":"Point","coordinates":[1.0220342476635513,42.95686687850464]}},{"type":"Feature","properties":{"nom":"Barjac","code":"09037","codeDepartement":"09","codeRegion":"76","codesPostaux":["09230"],"population":41},"geometry":{"type":"Point","coordinates":[1.1329842559999999,43.062236080000005]}},{"type":"Feature","properties":{"nom":"La Bastide-de-Besplas","code":"09038","codeDepartement":"09","codeRegion":"76","codesPostaux":["09350"],"population":379},"geometry":{"type":"Point","coordinates":[1.2698529396551728,43.16930738793104]}},{"type":"Feature","properties":{"nom":"La Bastide-de-Bousignac","code":"09039","codeDepartement":"09","codeRegion":"76","codesPostaux":["09500"],"population":336},"geometry":{"type":"Point","coordinates":[1.8849035745454537,43.05953041090913]}},{"type":"Feature","properties":{"nom":"La Bastide-de-Lordat","code":"09040","codeDepartement":"09","codeRegion":"76","codesPostaux":["09700"],"population":285},"geometry":{"type":"Point","coordinates":[1.710769551136365,43.139734346590906]}},{"type":"Feature","properties":{"nom":"La Bastide-du-Salat","code":"09041","codeDepartement":"09","codeRegion":"76","codesPostaux":["09160"],"population":172},"geometry":{"type":"Point","coordinates":[1.0035658859649126,43.06215410526314]}},{"type":"Feature","properties":{"nom":"La Bastide-de-Sérou","code":"09042","codeDepartement":"09","codeRegion":"76","codesPostaux":["09240"],"population":958},"geometry":{"type":"Point","coordinates":[1.413690805825243,43.01999458576053]}},{"type":"Feature","properties":{"nom":"La Bastide-sur-l'Hers","code":"09043","codeDepartement":"09","codeRegion":"76","codesPostaux":["09600"],"population":678},"geometry":{"type":"Point","coordinates":[1.9021506940298498,42.9458888283582]}},{"type":"Feature","properties":{"nom":"Baulou","code":"09044","codeDepartement":"09","codeRegion":"76","codesPostaux":["09000"],"population":168},"geometry":{"type":"Point","coordinates":[1.5442313743016767,43.01728367039106]}},{"type":"Feature","properties":{"nom":"Bédeilhac-et-Aynat","code":"09045","codeDepartement":"09","codeRegion":"76","codesPostaux":["09400"],"population":188},"geometry":{"type":"Point","coordinates":[1.5645897619047617,42.876301780952375]}},{"type":"Feature","properties":{"nom":"Bédeille","code":"09046","codeDepartement":"09","codeRegion":"76","codesPostaux":["09230"],"population":72},"geometry":{"type":"Point","coordinates":[1.1029476007604568,43.082592410646406]}},{"type":"Feature","properties":{"nom":"Bélesta","code":"09047","codeDepartement":"09","codeRegion":"76","codesPostaux":["09300"],"population":1046},"geometry":{"type":"Point","coordinates":[1.9443481865889203,42.89366783090381]}},{"type":"Feature","properties":{"nom":"Belloc","code":"09048","codeDepartement":"09","codeRegion":"76","codesPostaux":["09600"],"population":74},"geometry":{"type":"Point","coordinates":[1.9348035837837845,43.01008094054056]}},{"type":"Feature","properties":{"nom":"Bénac","code":"09049","codeDepartement":"09","codeRegion":"76","codesPostaux":["09000"],"population":182},"geometry":{"type":"Point","coordinates":[1.5330996769230762,42.959401087179494]}},{"type":"Feature","properties":{"nom":"Benagues","code":"09050","codeDepartement":"09","codeRegion":"76","codesPostaux":["09100"],"population":503},"geometry":{"type":"Point","coordinates":[1.6084617323943662,43.075960774647896]}},{"type":"Feature","properties":{"nom":"Bénaix","code":"09051","codeDepartement":"09","codeRegion":"76","codesPostaux":["09300"],"population":144},"geometry":{"type":"Point","coordinates":[1.8527652598870061,42.89661011864408]}},{"type":"Feature","properties":{"nom":"Besset","code":"09052","codeDepartement":"09","codeRegion":"76","codesPostaux":["09500"],"population":166},"geometry":{"type":"Point","coordinates":[1.8502353016528925,43.07474867768591]}},{"type":"Feature","properties":{"nom":"Bestiac","code":"09053","codeDepartement":"09","codeRegion":"76","codesPostaux":["09250"],"population":19},"geometry":{"type":"Point","coordinates":[1.798882680555556,42.78572395833331]}},{"type":"Feature","properties":{"nom":"Betchat","code":"09054","codeDepartement":"09","codeRegion":"76","codesPostaux":["09160"],"population":321},"geometry":{"type":"Point","coordinates":[1.0199394233409609,43.09079369336385]}},{"type":"Feature","properties":{"nom":"Bethmale","code":"09055","codeDepartement":"09","codeRegion":"76","codesPostaux":["09800"],"population":96},"geometry":{"type":"Point","coordinates":[1.069591304477611,42.86555510746268]}},{"type":"Feature","properties":{"nom":"Bézac","code":"09056","codeDepartement":"09","codeRegion":"76","codesPostaux":["09100"],"population":351},"geometry":{"type":"Point","coordinates":[1.568974505747127,43.150722339080446]}},{"type":"Feature","properties":{"nom":"Biert","code":"09057","codeDepartement":"09","codeRegion":"76","codesPostaux":["09320"],"population":314},"geometry":{"type":"Point","coordinates":[1.306323814671815,42.89320260617761]}},{"type":"Feature","properties":{"nom":"Bompas","code":"09058","codeDepartement":"09","codeRegion":"76","codesPostaux":["09400"],"population":198},"geometry":{"type":"Point","coordinates":[1.6198503750000004,42.86106371250002]}},{"type":"Feature","properties":{"nom":"Bonac-Irazein","code":"09059","codeDepartement":"09","codeRegion":"76","codesPostaux":["09800"],"population":119},"geometry":{"type":"Point","coordinates":[0.9798436856060609,42.85833503030308]}},{"type":"Feature","properties":{"nom":"Bonnac","code":"09060","codeDepartement":"09","codeRegion":"76","codesPostaux":["09100"],"population":724},"geometry":{"type":"Point","coordinates":[1.5895407247706428,43.17281417431193]}},{"type":"Feature","properties":{"nom":"Les Bordes-sur-Arize","code":"09061","codeDepartement":"09","codeRegion":"76","codesPostaux":["09350"],"population":511},"geometry":{"type":"Point","coordinates":[1.36516750877193,43.1186069356725]}},{"type":"Feature","properties":{"nom":"Bordes-Uchentein","code":"09062","codeDepartement":"09","codeRegion":"76","codesPostaux":["09800"],"population":177},"geometry":{"type":"Point","coordinates":[1.0319048154269985,42.864479234159774]}},{"type":"Feature","properties":{"nom":"Le Bosc","code":"09063","codeDepartement":"09","codeRegion":"76","codesPostaux":["09000"],"population":100},"geometry":{"type":"Point","coordinates":[1.4498655555555557,42.93231739682538]}},{"type":"Feature","properties":{"nom":"Bouan","code":"09064","codeDepartement":"09","codeRegion":"76","codesPostaux":["09310"],"population":38},"geometry":{"type":"Point","coordinates":[1.6420852105263155,42.791087031578954]}},{"type":"Feature","properties":{"nom":"Boussenac","code":"09065","codeDepartement":"09","codeRegion":"76","codesPostaux":["09320"],"population":212},"geometry":{"type":"Point","coordinates":[1.3836478185185186,42.90574778148149]}},{"type":"Feature","properties":{"nom":"Brassac","code":"09066","codeDepartement":"09","codeRegion":"76","codesPostaux":["09000"],"population":639},"geometry":{"type":"Point","coordinates":[1.5197999573333334,42.942448306666655]}},{"type":"Feature","properties":{"nom":"Brie","code":"09067","codeDepartement":"09","codeRegion":"76","codesPostaux":["09700"],"population":219},"geometry":{"type":"Point","coordinates":[1.5202076609195396,43.207112591954015]}},{"type":"Feature","properties":{"nom":"Burret","code":"09068","codeDepartement":"09","codeRegion":"76","codesPostaux":["09000"],"population":39},"geometry":{"type":"Point","coordinates":[1.4727067018633544,42.95281599378881]}},{"type":"Feature","properties":{"nom":"Buzan","code":"09069","codeDepartement":"09","codeRegion":"76","codesPostaux":["09800"],"population":29},"geometry":{"type":"Point","coordinates":[0.9650787682926829,42.95907419512196]}},{"type":"Feature","properties":{"nom":"Les Cabannes","code":"09070","codeDepartement":"09","codeRegion":"76","codesPostaux":["09310"],"population":331},"geometry":{"type":"Point","coordinates":[1.6881068640000005,42.78465224800002]}},{"type":"Feature","properties":{"nom":"Cadarcet","code":"09071","codeDepartement":"09","codeRegion":"76","codesPostaux":["09240"],"population":227},"geometry":{"type":"Point","coordinates":[1.5016572446043164,43.01791487050361]}},{"type":"Feature","properties":{"nom":"Calzan","code":"09072","codeDepartement":"09","codeRegion":"76","codesPostaux":["09120"],"population":32},"geometry":{"type":"Point","coordinates":[1.7417187894736843,43.031581355263164]}},{"type":"Feature","properties":{"nom":"Camarade","code":"09073","codeDepartement":"09","codeRegion":"76","codesPostaux":["09290"],"population":181},"geometry":{"type":"Point","coordinates":[1.2776696645569623,43.07266151265822]}},{"type":"Feature","properties":{"nom":"Camon","code":"09074","codeDepartement":"09","codeRegion":"76","codesPostaux":["09500","09600"],"population":141},"geometry":{"type":"Point","coordinates":[1.9606277891373818,43.02106463258786]}},{"type":"Feature","properties":{"nom":"Campagne-sur-Arize","code":"09075","codeDepartement":"09","codeRegion":"76","codesPostaux":["09350"],"population":266},"geometry":{"type":"Point","coordinates":[1.3180706187500013,43.118057212499984]}},{"type":"Feature","properties":{"nom":"Canté","code":"09076","codeDepartement":"09","codeRegion":"76","codesPostaux":["09700"],"population":206},"geometry":{"type":"Point","coordinates":[1.5257351111111108,43.249318725925924]}},{"type":"Feature","properties":{"nom":"Capoulet-et-Junac","code":"09077","codeDepartement":"09","codeRegion":"76","codesPostaux":["09400"],"population":169},"geometry":{"type":"Point","coordinates":[1.5727180000000005,42.79056421126762]}},{"type":"Feature","properties":{"nom":"Carcanières","code":"09078","codeDepartement":"09","codeRegion":"76","codesPostaux":["09460"],"population":77},"geometry":{"type":"Point","coordinates":[2.1234505802469137,42.70808316049385]}},{"type":"Feature","properties":{"nom":"Carla-Bayle","code":"09079","codeDepartement":"09","codeRegion":"76","codesPostaux":["09130"],"population":761},"geometry":{"type":"Point","coordinates":[1.3708125787781342,43.156297424437284]}},{"type":"Feature","properties":{"nom":"Carla-de-Roquefort","code":"09080","codeDepartement":"09","codeRegion":"76","codesPostaux":["09300"],"population":164},"geometry":{"type":"Point","coordinates":[1.7548740814814812,42.977809903703715]}},{"type":"Feature","properties":{"nom":"Le Carlaret","code":"09081","codeDepartement":"09","codeRegion":"76","codesPostaux":["09100"],"population":280},"geometry":{"type":"Point","coordinates":[1.700250951388889,43.132805093749994]}},{"type":"Feature","properties":{"nom":"Castelnau-Durban","code":"09082","codeDepartement":"09","codeRegion":"76","codesPostaux":["09420"],"population":447},"geometry":{"type":"Point","coordinates":[1.347299159544159,42.99526794017096]}},{"type":"Feature","properties":{"nom":"Castéras","code":"09083","codeDepartement":"09","codeRegion":"76","codesPostaux":["09130"],"population":26},"geometry":{"type":"Point","coordinates":[1.4040910684931502,43.126204753424645]}},{"type":"Feature","properties":{"nom":"Castex","code":"09084","codeDepartement":"09","codeRegion":"76","codesPostaux":["09350"],"population":95},"geometry":{"type":"Point","coordinates":[1.3235139285714288,43.16805826530612]}},{"type":"Feature","properties":{"nom":"Castillon-en-Couserans","code":"09085","codeDepartement":"09","codeRegion":"76","codesPostaux":["09800"],"population":401},"geometry":{"type":"Point","coordinates":[1.0591459724770642,42.91739331192662]}},{"type":"Feature","properties":{"nom":"Caumont","code":"09086","codeDepartement":"09","codeRegion":"76","codesPostaux":["09160"],"population":324},"geometry":{"type":"Point","coordinates":[1.081821403361345,43.0162466092437]}},{"type":"Feature","properties":{"nom":"Caussou","code":"09087","codeDepartement":"09","codeRegion":"76","codesPostaux":["09250"],"population":59},"geometry":{"type":"Point","coordinates":[1.8303173214285715,42.767395666666665]}},{"type":"Feature","properties":{"nom":"Caychax","code":"09088","codeDepartement":"09","codeRegion":"76","codesPostaux":["09250"],"population":14},"geometry":{"type":"Point","coordinates":[1.7248205426829277,42.80676409146343]}},{"type":"Feature","properties":{"nom":"Cazals-des-Baylès","code":"09089","codeDepartement":"09","codeRegion":"76","codesPostaux":["09500"],"population":55},"geometry":{"type":"Point","coordinates":[1.9347617762237754,43.09111871328669]}},{"type":"Feature","properties":{"nom":"Cazaux","code":"09090","codeDepartement":"09","codeRegion":"76","codesPostaux":["09120"],"population":42},"geometry":{"type":"Point","coordinates":[1.5207527920000001,43.05066187199999]}},{"type":"Feature","properties":{"nom":"Cazavet","code":"09091","codeDepartement":"09","codeRegion":"76","codesPostaux":["09160"],"population":232},"geometry":{"type":"Point","coordinates":[1.0512260624999996,43.00488920833331]}},{"type":"Feature","properties":{"nom":"Cazenave-Serres-et-Allens","code":"09092","codeDepartement":"09","codeRegion":"76","codesPostaux":["09400"],"population":47},"geometry":{"type":"Point","coordinates":[1.6997865287356322,42.842003816091946]}},{"type":"Feature","properties":{"nom":"Celles","code":"09093","codeDepartement":"09","codeRegion":"76","codesPostaux":["09000"],"population":143},"geometry":{"type":"Point","coordinates":[1.6995785714285714,42.91966579365079]}},{"type":"Feature","properties":{"nom":"Cérizols","code":"09094","codeDepartement":"09","codeRegion":"76","codesPostaux":["09230"],"population":143},"geometry":{"type":"Point","coordinates":[1.0664797203389829,43.123080262711845]}},{"type":"Feature","properties":{"nom":"Cescau","code":"09095","codeDepartement":"09","codeRegion":"76","codesPostaux":["09800"],"population":137},"geometry":{"type":"Point","coordinates":[1.0584517087378638,42.925247223300964]}},{"type":"Feature","properties":{"nom":"Château-Verdun","code":"09096","codeDepartement":"09","codeRegion":"76","codesPostaux":["09310"],"population":41},"geometry":{"type":"Point","coordinates":[1.6785723709677425,42.78050879032257]}},{"type":"Feature","properties":{"nom":"Clermont","code":"09097","codeDepartement":"09","codeRegion":"76","codesPostaux":["09420"],"population":114},"geometry":{"type":"Point","coordinates":[1.2950682105263156,43.03629128070173]}},{"type":"Feature","properties":{"nom":"Contrazy","code":"09098","codeDepartement":"09","codeRegion":"76","codesPostaux":["09230"],"population":71},"geometry":{"type":"Point","coordinates":[1.2027057848101264,43.05790626582279]}},{"type":"Feature","properties":{"nom":"Cos","code":"09099","codeDepartement":"09","codeRegion":"76","codesPostaux":["09000"],"population":394},"geometry":{"type":"Point","coordinates":[1.5694783451327432,42.98119049557524]}},{"type":"Feature","properties":{"nom":"Couflens","code":"09100","codeDepartement":"09","codeRegion":"76","codesPostaux":["09140"],"population":84},"geometry":{"type":"Point","coordinates":[1.1872589219653178,42.78036532947979]}},{"type":"Feature","properties":{"nom":"Coussa","code":"09101","codeDepartement":"09","codeRegion":"76","codesPostaux":["09120"],"population":255},"geometry":{"type":"Point","coordinates":[1.6952202780748657,43.06732073796794]}},{"type":"Feature","properties":{"nom":"Coutens","code":"09102","codeDepartement":"09","codeRegion":"76","codesPostaux":["09500"],"population":172},"geometry":{"type":"Point","coordinates":[1.8221782499999997,43.06966721666668]}},{"type":"Feature","properties":{"nom":"Crampagna","code":"09103","codeDepartement":"09","codeRegion":"76","codesPostaux":["09120"],"population":820},"geometry":{"type":"Point","coordinates":[1.5975490355029576,43.02639013609466]}},{"type":"Feature","properties":{"nom":"Dalou","code":"09104","codeDepartement":"09","codeRegion":"76","codesPostaux":["09120"],"population":770},"geometry":{"type":"Point","coordinates":[1.6487344152542376,43.0309918305085]}},{"type":"Feature","properties":{"nom":"Daumazan-sur-Arize","code":"09105","codeDepartement":"09","codeRegion":"76","codesPostaux":["09350"],"population":724},"geometry":{"type":"Point","coordinates":[1.298033511627907,43.14259158720929]}},{"type":"Feature","properties":{"nom":"Dreuilhe","code":"09106","codeDepartement":"09","codeRegion":"76","codesPostaux":["09300"],"population":354},"geometry":{"type":"Point","coordinates":[1.8663358333333335,42.945872297101445]}},{"type":"Feature","properties":{"nom":"Dun","code":"09107","codeDepartement":"09","codeRegion":"76","codesPostaux":["09600","09120"],"population":561},"geometry":{"type":"Point","coordinates":[1.7925946944444429,43.0232149197531]}},{"type":"Feature","properties":{"nom":"Durban-sur-Arize","code":"09108","codeDepartement":"09","codeRegion":"76","codesPostaux":["09240"],"population":181},"geometry":{"type":"Point","coordinates":[1.3531839035087712,43.01706724561403]}},{"type":"Feature","properties":{"nom":"Durfort","code":"09109","codeDepartement":"09","codeRegion":"76","codesPostaux":["09130"],"population":147},"geometry":{"type":"Point","coordinates":[1.462090914965987,43.19316647619046]}},{"type":"Feature","properties":{"nom":"Encourtiech","code":"09110","codeDepartement":"09","codeRegion":"76","codesPostaux":["09200"],"population":89},"geometry":{"type":"Point","coordinates":[1.1943540585106394,42.963120409574465]}},{"type":"Feature","properties":{"nom":"Engomer","code":"09111","codeDepartement":"09","codeRegion":"76","codesPostaux":["09800"],"population":290},"geometry":{"type":"Point","coordinates":[1.065200510703364,42.93713707645256]}},{"type":"Feature","properties":{"nom":"Ercé","code":"09113","codeDepartement":"09","codeRegion":"76","codesPostaux":["09140"],"population":527},"geometry":{"type":"Point","coordinates":[1.2964966091954022,42.840497867816055]}},{"type":"Feature","properties":{"nom":"Erp","code":"09114","codeDepartement":"09","codeRegion":"76","codesPostaux":["09200"],"population":116},"geometry":{"type":"Point","coordinates":[1.1944336410256415,42.92946958974358]}},{"type":"Feature","properties":{"nom":"Esclagne","code":"09115","codeDepartement":"09","codeRegion":"76","codesPostaux":["09600"],"population":144},"geometry":{"type":"Point","coordinates":[1.8451894302325589,42.980988732558146]}},{"type":"Feature","properties":{"nom":"Escosse","code":"09116","codeDepartement":"09","codeRegion":"76","codesPostaux":["09100"],"population":413},"geometry":{"type":"Point","coordinates":[1.5531606425531914,43.12397370638296]}},{"type":"Feature","properties":{"nom":"Esplas","code":"09117","codeDepartement":"09","codeRegion":"76","codesPostaux":["09700"],"population":99},"geometry":{"type":"Point","coordinates":[1.4954611758793976,43.185836678391986]}},{"type":"Feature","properties":{"nom":"Esplas-de-Sérou","code":"09118","codeDepartement":"09","codeRegion":"76","codesPostaux":["09420","09240"],"population":175},"geometry":{"type":"Point","coordinates":[1.3645938180404347,42.96383460031102]}},{"type":"Feature","properties":{"nom":"Eycheil","code":"09119","codeDepartement":"09","codeRegion":"76","codesPostaux":["09200"],"population":555},"geometry":{"type":"Point","coordinates":[1.1614863947368423,42.954338434210534]}},{"type":"Feature","properties":{"nom":"Fabas","code":"09120","codeDepartement":"09","codeRegion":"76","codesPostaux":["09230"],"population":351},"geometry":{"type":"Point","coordinates":[1.1093048381962871,43.123740681697605]}},{"type":"Feature","properties":{"nom":"Ferrières-sur-Ariège","code":"09121","codeDepartement":"09","codeRegion":"76","codesPostaux":["09000"],"population":788},"geometry":{"type":"Point","coordinates":[1.604367008474577,42.93951922033899]}},{"type":"Feature","properties":{"nom":"Foix","code":"09122","codeDepartement":"09","codeRegion":"76","codesPostaux":["09000"],"population":9613},"geometry":{"type":"Point","coordinates":[1.6100849127659573,42.96240053191484]}},{"type":"Feature","properties":{"nom":"Fornex","code":"09123","codeDepartement":"09","codeRegion":"76","codesPostaux":["09350"],"population":113},"geometry":{"type":"Point","coordinates":[1.2346756209150331,43.16164683986932]}},{"type":"Feature","properties":{"nom":"Le Fossat","code":"09124","codeDepartement":"09","codeRegion":"76","codesPostaux":["09130"],"population":1052},"geometry":{"type":"Point","coordinates":[1.4223565294117646,43.17823248868776]}},{"type":"Feature","properties":{"nom":"Fougax-et-Barrineuf","code":"09125","codeDepartement":"09","codeRegion":"76","codesPostaux":["09300"],"population":437},"geometry":{"type":"Point","coordinates":[1.9105504679245289,42.87683881886794]}},{"type":"Feature","properties":{"nom":"Freychenet","code":"09126","codeDepartement":"09","codeRegion":"76","codesPostaux":["09300","09000"],"population":91},"geometry":{"type":"Point","coordinates":[1.7336447591623037,42.89504939267015]}},{"type":"Feature","properties":{"nom":"Gabre","code":"09127","codeDepartement":"09","codeRegion":"76","codesPostaux":["09290"],"population":118},"geometry":{"type":"Point","coordinates":[1.424004492307692,43.06618298461538]}},{"type":"Feature","properties":{"nom":"Gajan","code":"09128","codeDepartement":"09","codeRegion":"76","codesPostaux":["09190"],"population":311},"geometry":{"type":"Point","coordinates":[1.1390495664335665,43.038184818181826]}},{"type":"Feature","properties":{"nom":"Galey","code":"09129","codeDepartement":"09","codeRegion":"76","codesPostaux":["09800"],"population":120},"geometry":{"type":"Point","coordinates":[0.9053262913385828,42.94299868110234]}},{"type":"Feature","properties":{"nom":"Ganac","code":"09130","codeDepartement":"09","codeRegion":"76","codesPostaux":["09000"],"population":705},"geometry":{"type":"Point","coordinates":[1.5635129176954727,42.94438398353909]}},{"type":"Feature","properties":{"nom":"Garanou","code":"09131","codeDepartement":"09","codeRegion":"76","codesPostaux":["09250"],"population":166},"geometry":{"type":"Point","coordinates":[1.7428202032520326,42.764291203252036]}},{"type":"Feature","properties":{"nom":"Gaudiès","code":"09132","codeDepartement":"09","codeRegion":"76","codesPostaux":["09700"],"population":241},"geometry":{"type":"Point","coordinates":[1.743084624521072,43.17126310727969]}},{"type":"Feature","properties":{"nom":"Génat","code":"09133","codeDepartement":"09","codeRegion":"76","codesPostaux":["09400"],"population":21},"geometry":{"type":"Point","coordinates":[1.5651303299492394,42.82639119796954]}},{"type":"Feature","properties":{"nom":"Gestiès","code":"09134","codeDepartement":"09","codeRegion":"76","codesPostaux":["09220"],"population":26},"geometry":{"type":"Point","coordinates":[1.5840761739130425,42.71181412077293]}},{"type":"Feature","properties":{"nom":"Gourbit","code":"09136","codeDepartement":"09","codeRegion":"76","codesPostaux":["09400"],"population":82},"geometry":{"type":"Point","coordinates":[1.5215719022556393,42.83402384962409]}},{"type":"Feature","properties":{"nom":"Gudas","code":"09137","codeDepartement":"09","codeRegion":"76","codesPostaux":["09120"],"population":181},"geometry":{"type":"Point","coordinates":[1.6804894087591238,43.0002331678832]}},{"type":"Feature","properties":{"nom":"L'Herm","code":"09138","codeDepartement":"09","codeRegion":"76","codesPostaux":["09000"],"population":202},"geometry":{"type":"Point","coordinates":[1.6706826951219513,42.97569368292679]}},{"type":"Feature","properties":{"nom":"L'Hospitalet-près-l'Andorre","code":"09139","codeDepartement":"09","codeRegion":"76","codesPostaux":["09390"],"population":91},"geometry":{"type":"Point","coordinates":[1.7733899777777777,42.59694501111112]}},{"type":"Feature","properties":{"nom":"Ignaux","code":"09140","codeDepartement":"09","codeRegion":"76","codesPostaux":["09110"],"population":110},"geometry":{"type":"Point","coordinates":[1.8427318101265824,42.74154198734176]}},{"type":"Feature","properties":{"nom":"Illartein","code":"09141","codeDepartement":"09","codeRegion":"76","codesPostaux":["09800"],"population":73},"geometry":{"type":"Point","coordinates":[0.9559581699346404,42.926306875817005]}},{"type":"Feature","properties":{"nom":"Ilhat","code":"09142","codeDepartement":"09","codeRegion":"76","codesPostaux":["09300"],"population":114},"geometry":{"type":"Point","coordinates":[1.7837882166666665,42.95045185]}},{"type":"Feature","properties":{"nom":"Illier-et-Laramade","code":"09143","codeDepartement":"09","codeRegion":"76","codesPostaux":["09220"],"population":25},"geometry":{"type":"Point","coordinates":[1.5421611000000002,42.785071749999986]}},{"type":"Feature","properties":{"nom":"Les Issards","code":"09145","codeDepartement":"09","codeRegion":"76","codesPostaux":["09100"],"population":237},"geometry":{"type":"Point","coordinates":[1.738509704918033,43.08009949180327]}},{"type":"Feature","properties":{"nom":"Justiniac","code":"09146","codeDepartement":"09","codeRegion":"76","codesPostaux":["09700"],"population":53},"geometry":{"type":"Point","coordinates":[1.4875441648351646,43.215336000000015]}},{"type":"Feature","properties":{"nom":"Labatut","code":"09147","codeDepartement":"09","codeRegion":"76","codesPostaux":["09700"],"population":175},"geometry":{"type":"Point","coordinates":[1.5194204931506854,43.25927004109589]}},{"type":"Feature","properties":{"nom":"Lacave","code":"09148","codeDepartement":"09","codeRegion":"76","codesPostaux":["09160"],"population":155},"geometry":{"type":"Point","coordinates":[1.016495322580645,43.048489473118295]}},{"type":"Feature","properties":{"nom":"Lacourt","code":"09149","codeDepartement":"09","codeRegion":"76","codesPostaux":["09200"],"population":198},"geometry":{"type":"Point","coordinates":[1.181876118110237,42.94101226771653]}},{"type":"Feature","properties":{"nom":"Lagarde","code":"09150","codeDepartement":"09","codeRegion":"76","codesPostaux":["09500"],"population":191},"geometry":{"type":"Point","coordinates":[1.9399760601092912,43.04792917213116]}},{"type":"Feature","properties":{"nom":"Lanoux","code":"09151","codeDepartement":"09","codeRegion":"76","codesPostaux":["09130"],"population":50},"geometry":{"type":"Point","coordinates":[1.4256475496183199,43.11930637404577]}},{"type":"Feature","properties":{"nom":"Lapège","code":"09152","codeDepartement":"09","codeRegion":"76","codesPostaux":["09400"],"population":29},"geometry":{"type":"Point","coordinates":[1.560376226890756,42.805567201680674]}},{"type":"Feature","properties":{"nom":"Lapenne","code":"09153","codeDepartement":"09","codeRegion":"76","codesPostaux":["09500"],"population":131},"geometry":{"type":"Point","coordinates":[1.776321329545454,43.14835258238639]}},{"type":"Feature","properties":{"nom":"Larbont","code":"09154","codeDepartement":"09","codeRegion":"76","codesPostaux":["09240"],"population":54},"geometry":{"type":"Point","coordinates":[1.4039145390624999,42.9920067421875]}},{"type":"Feature","properties":{"nom":"Larcat","code":"09155","codeDepartement":"09","codeRegion":"76","codesPostaux":["09310"],"population":45},"geometry":{"type":"Point","coordinates":[1.6498986747967481,42.77169093495933]}},{"type":"Feature","properties":{"nom":"Larnat","code":"09156","codeDepartement":"09","codeRegion":"76","codesPostaux":["09310"],"population":21},"geometry":{"type":"Point","coordinates":[1.628156857142857,42.792666571428576]}},{"type":"Feature","properties":{"nom":"Laroque-d'Olmes","code":"09157","codeDepartement":"09","codeRegion":"76","codesPostaux":["09600"],"population":2454},"geometry":{"type":"Point","coordinates":[1.8612720487012988,42.967287402597414]}},{"type":"Feature","properties":{"nom":"Lasserre","code":"09158","codeDepartement":"09","codeRegion":"76","codesPostaux":["09230"],"population":243},"geometry":{"type":"Point","coordinates":[1.164157411042945,43.07396204907975]}},{"type":"Feature","properties":{"nom":"Lassur","code":"09159","codeDepartement":"09","codeRegion":"76","codesPostaux":["09310"],"population":82},"geometry":{"type":"Point","coordinates":[1.723538259668507,42.749113895027605]}},{"type":"Feature","properties":{"nom":"Lavelanet","code":"09160","codeDepartement":"09","codeRegion":"76","codesPostaux":["09300"],"population":6165},"geometry":{"type":"Point","coordinates":[1.8473739723756903,42.93329972928176]}},{"type":"Feature","properties":{"nom":"Léran","code":"09161","codeDepartement":"09","codeRegion":"76","codesPostaux":["09600"],"population":593},"geometry":{"type":"Point","coordinates":[1.9294184487179502,42.98064948397434]}},{"type":"Feature","properties":{"nom":"Lercoul","code":"09162","codeDepartement":"09","codeRegion":"76","codesPostaux":["09220"],"population":25},"geometry":{"type":"Point","coordinates":[1.5249768045977015,42.7111483908046]}},{"type":"Feature","properties":{"nom":"Lescousse","code":"09163","codeDepartement":"09","codeRegion":"76","codesPostaux":["09100"],"population":77},"geometry":{"type":"Point","coordinates":[1.5090046382978715,43.14976919148934]}},{"type":"Feature","properties":{"nom":"Lescure","code":"09164","codeDepartement":"09","codeRegion":"76","codesPostaux":["09420"],"population":505},"geometry":{"type":"Point","coordinates":[1.2417537977941182,43.007777536764706]}},{"type":"Feature","properties":{"nom":"Lesparrou","code":"09165","codeDepartement":"09","codeRegion":"76","codesPostaux":["09300"],"population":232},"geometry":{"type":"Point","coordinates":[1.9356939185667748,42.92575180781762]}},{"type":"Feature","properties":{"nom":"Leychert","code":"09166","codeDepartement":"09","codeRegion":"76","codesPostaux":["09300"],"population":101},"geometry":{"type":"Point","coordinates":[1.7241316108108107,42.94306564324325]}},{"type":"Feature","properties":{"nom":"Lézat-sur-Lèze","code":"09167","codeDepartement":"09","codeRegion":"76","codesPostaux":["09210"],"population":2320},"geometry":{"type":"Point","coordinates":[1.3292506974951834,43.279841849710984]}},{"type":"Feature","properties":{"nom":"Lieurac","code":"09168","codeDepartement":"09","codeRegion":"76","codesPostaux":["09300"],"population":183},"geometry":{"type":"Point","coordinates":[1.7911181807228913,42.98528006024096]}},{"type":"Feature","properties":{"nom":"Limbrassac","code":"09169","codeDepartement":"09","codeRegion":"76","codesPostaux":["09600"],"population":127},"geometry":{"type":"Point","coordinates":[1.8436494046822736,43.01103025418062]}},{"type":"Feature","properties":{"nom":"Lissac","code":"09170","codeDepartement":"09","codeRegion":"76","codesPostaux":["09700"],"population":245},"geometry":{"type":"Point","coordinates":[1.508515534090909,43.269925090909084]}},{"type":"Feature","properties":{"nom":"Lordat","code":"09171","codeDepartement":"09","codeRegion":"76","codesPostaux":["09250"],"population":63},"geometry":{"type":"Point","coordinates":[1.7824343000000002,42.79726450000004]}},{"type":"Feature","properties":{"nom":"Loubaut","code":"09172","codeDepartement":"09","codeRegion":"76","codesPostaux":["09350"],"population":28},"geometry":{"type":"Point","coordinates":[1.2839345071428565,43.18960110000001]}},{"type":"Feature","properties":{"nom":"Loubens","code":"09173","codeDepartement":"09","codeRegion":"76","codesPostaux":["09120"],"population":268},"geometry":{"type":"Point","coordinates":[1.5599921502347411,43.04930988732395]}},{"type":"Feature","properties":{"nom":"Loubières","code":"09174","codeDepartement":"09","codeRegion":"76","codesPostaux":["09000"],"population":329},"geometry":{"type":"Point","coordinates":[1.598530676056338,43.007684338028156]}},{"type":"Feature","properties":{"nom":"Ludiès","code":"09175","codeDepartement":"09","codeRegion":"76","codesPostaux":["09100"],"population":84},"geometry":{"type":"Point","coordinates":[1.7144011749999997,43.11966841249999]}},{"type":"Feature","properties":{"nom":"Luzenac","code":"09176","codeDepartement":"09","codeRegion":"76","codesPostaux":["09250"],"population":508},"geometry":{"type":"Point","coordinates":[1.7404461486486484,42.72107364864865]}},{"type":"Feature","properties":{"nom":"Madière","code":"09177","codeDepartement":"09","codeRegion":"76","codesPostaux":["09100","09130"],"population":196},"geometry":{"type":"Point","coordinates":[1.5169202592592592,43.11020644753084]}},{"type":"Feature","properties":{"nom":"Malegoude","code":"09178","codeDepartement":"09","codeRegion":"76","codesPostaux":["09500"],"population":46},"geometry":{"type":"Point","coordinates":[1.9273787098214274,43.11213468303572]}},{"type":"Feature","properties":{"nom":"Malléon","code":"09179","codeDepartement":"09","codeRegion":"76","codesPostaux":["09120"],"population":68},"geometry":{"type":"Point","coordinates":[1.716554913043479,43.03422290217392]}},{"type":"Feature","properties":{"nom":"Manses","code":"09180","codeDepartement":"09","codeRegion":"76","codesPostaux":["09500"],"population":129},"geometry":{"type":"Point","coordinates":[1.820363228346456,43.112158102362216]}},{"type":"Feature","properties":{"nom":"Le Mas-d'Azil","code":"09181","codeDepartement":"09","codeRegion":"76","codesPostaux":["09290"],"population":1180},"geometry":{"type":"Point","coordinates":[1.345037104072399,43.06320885972849]}},{"type":"Feature","properties":{"nom":"Massat","code":"09182","codeDepartement":"09","codeRegion":"76","codesPostaux":["09320"],"population":665},"geometry":{"type":"Point","coordinates":[1.3737252481203008,42.88112662656645]}},{"type":"Feature","properties":{"nom":"Mauvezin-de-Prat","code":"09183","codeDepartement":"09","codeRegion":"76","codesPostaux":["09160"],"population":101},"geometry":{"type":"Point","coordinates":[0.9936655319148938,43.03201408510638]}},{"type":"Feature","properties":{"nom":"Mauvezin-de-Sainte-Croix","code":"09184","codeDepartement":"09","codeRegion":"76","codesPostaux":["09230"],"population":36},"geometry":{"type":"Point","coordinates":[1.2309109200000001,43.07927174999999]}},{"type":"Feature","properties":{"nom":"Mazères","code":"09185","codeDepartement":"09","codeRegion":"76","codesPostaux":["09270"],"population":3854},"geometry":{"type":"Point","coordinates":[1.681700979127135,43.23809063946869]}},{"type":"Feature","properties":{"nom":"Méras","code":"09186","codeDepartement":"09","codeRegion":"76","codesPostaux":["09350"],"population":107},"geometry":{"type":"Point","coordinates":[1.3090681788079472,43.185596966887424]}},{"type":"Feature","properties":{"nom":"Mercenac","code":"09187","codeDepartement":"09","codeRegion":"76","codesPostaux":["09160"],"population":362},"geometry":{"type":"Point","coordinates":[1.068684235294117,43.05643140784313]}},{"type":"Feature","properties":{"nom":"Mercus-Garrabet","code":"09188","codeDepartement":"09","codeRegion":"76","codesPostaux":["09400"],"population":1181},"geometry":{"type":"Point","coordinates":[1.646508819277109,42.88055030722893]}},{"type":"Feature","properties":{"nom":"Mérens-les-Vals","code":"09189","codeDepartement":"09","codeRegion":"76","codesPostaux":["09110"],"population":167},"geometry":{"type":"Point","coordinates":[1.8253128232323232,42.62492517676768]}},{"type":"Feature","properties":{"nom":"Mérigon","code":"09190","codeDepartement":"09","codeRegion":"76","codesPostaux":["09230"],"population":114},"geometry":{"type":"Point","coordinates":[1.2075431329787232,43.090843388297884]}},{"type":"Feature","properties":{"nom":"Miglos","code":"09192","codeDepartement":"09","codeRegion":"76","codesPostaux":["09400"],"population":118},"geometry":{"type":"Point","coordinates":[1.6040660948905119,42.78182040145985]}},{"type":"Feature","properties":{"nom":"Mijanès","code":"09193","codeDepartement":"09","codeRegion":"76","codesPostaux":["09460"],"population":59},"geometry":{"type":"Point","coordinates":[2.01206681884058,42.70691545652169]}},{"type":"Feature","properties":{"nom":"Mirepoix","code":"09194","codeDepartement":"09","codeRegion":"76","codesPostaux":["09500"],"population":3191},"geometry":{"type":"Point","coordinates":[1.8646179616346985,43.11396325604668]}},{"type":"Feature","properties":{"nom":"Monesple","code":"09195","codeDepartement":"09","codeRegion":"76","codesPostaux":["09130"],"population":26},"geometry":{"type":"Point","coordinates":[1.478266279411764,43.09646488970587]}},{"type":"Feature","properties":{"nom":"Montagagne","code":"09196","codeDepartement":"09","codeRegion":"76","codesPostaux":["09240"],"population":73},"geometry":{"type":"Point","coordinates":[1.405534514285714,42.96524768095237]}},{"type":"Feature","properties":{"nom":"Montaillou","code":"09197","codeDepartement":"09","codeRegion":"76","codesPostaux":["09110"],"population":17},"geometry":{"type":"Point","coordinates":[1.9054604029850755,42.78770451492536]}},{"type":"Feature","properties":{"nom":"Montardit","code":"09198","codeDepartement":"09","codeRegion":"76","codesPostaux":["09230"],"population":189},"geometry":{"type":"Point","coordinates":[1.187559209016393,43.06808724590164]}},{"type":"Feature","properties":{"nom":"Montaut","code":"09199","codeDepartement":"09","codeRegion":"76","codesPostaux":["09700"],"population":716},"geometry":{"type":"Point","coordinates":[1.6581585315789473,43.18650680526315]}},{"type":"Feature","properties":{"nom":"Montbel","code":"09200","codeDepartement":"09","codeRegion":"76","codesPostaux":["09600"],"population":120},"geometry":{"type":"Point","coordinates":[1.9698792476489013,42.97730383385584]}},{"type":"Feature","properties":{"nom":"Montégut-en-Couserans","code":"09201","codeDepartement":"09","codeRegion":"76","codesPostaux":["09200"],"population":72},"geometry":{"type":"Point","coordinates":[1.0977141835206,42.98610340449437]}},{"type":"Feature","properties":{"nom":"Montégut-Plantaurel","code":"09202","codeDepartement":"09","codeRegion":"76","codesPostaux":["09120"],"population":338},"geometry":{"type":"Point","coordinates":[1.5057604497354502,43.08602773544972]}},{"type":"Feature","properties":{"nom":"Montels","code":"09203","codeDepartement":"09","codeRegion":"76","codesPostaux":["09240"],"population":159},"geometry":{"type":"Point","coordinates":[1.4680292241379314,43.00527087931034]}},{"type":"Feature","properties":{"nom":"Montesquieu-Avantès","code":"09204","codeDepartement":"09","codeRegion":"76","codesPostaux":["09200"],"population":247},"geometry":{"type":"Point","coordinates":[1.2205178560311285,43.039797299610896]}},{"type":"Feature","properties":{"nom":"Montfa","code":"09205","codeDepartement":"09","codeRegion":"76","codesPostaux":["09350"],"population":82},"geometry":{"type":"Point","coordinates":[1.2778487475728162,43.104280694174754]}},{"type":"Feature","properties":{"nom":"Montferrier","code":"09206","codeDepartement":"09","codeRegion":"76","codesPostaux":["09300"],"population":502},"geometry":{"type":"Point","coordinates":[1.7699867654867254,42.87779930530973]}},{"type":"Feature","properties":{"nom":"Montgaillard","code":"09207","codeDepartement":"09","codeRegion":"76","codesPostaux":["09330"],"population":1453},"geometry":{"type":"Point","coordinates":[1.6413691686746992,42.938114847389556]}},{"type":"Feature","properties":{"nom":"Montgauch","code":"09208","codeDepartement":"09","codeRegion":"76","codesPostaux":["09160"],"population":122},"geometry":{"type":"Point","coordinates":[1.0785741574803143,42.99975808136485]}},{"type":"Feature","properties":{"nom":"Montjoie-en-Couserans","code":"09209","codeDepartement":"09","codeRegion":"76","codesPostaux":["09200"],"population":1082},"geometry":{"type":"Point","coordinates":[1.1789460812324923,43.013200257703076]}},{"type":"Feature","properties":{"nom":"Montoulieu","code":"09210","codeDepartement":"09","codeRegion":"76","codesPostaux":["09000"],"population":409},"geometry":{"type":"Point","coordinates":[1.6140490695652168,42.90101327826087]}},{"type":"Feature","properties":{"nom":"Montségur","code":"09211","codeDepartement":"09","codeRegion":"76","codesPostaux":["09300"],"population":125},"geometry":{"type":"Point","coordinates":[1.836043827586206,42.833934413793095]}},{"type":"Feature","properties":{"nom":"Montseron","code":"09212","codeDepartement":"09","codeRegion":"76","codesPostaux":["09240"],"population":90},"geometry":{"type":"Point","coordinates":[1.312753831932773,43.01969363025209]}},{"type":"Feature","properties":{"nom":"Moulin-Neuf","code":"09213","codeDepartement":"09","codeRegion":"76","codesPostaux":["09500"],"population":235},"geometry":{"type":"Point","coordinates":[1.9483165000000005,43.07105249450549]}},{"type":"Feature","properties":{"nom":"Moulis","code":"09214","codeDepartement":"09","codeRegion":"76","codesPostaux":["09200"],"population":763},"geometry":{"type":"Point","coordinates":[1.0931216095505623,42.95191356741573]}},{"type":"Feature","properties":{"nom":"Nalzen","code":"09215","codeDepartement":"09","codeRegion":"76","codesPostaux":["09300"],"population":143},"geometry":{"type":"Point","coordinates":[1.755003968888889,42.91947323999995]}},{"type":"Feature","properties":{"nom":"Nescus","code":"09216","codeDepartement":"09","codeRegion":"76","codesPostaux":["09240"],"population":62},"geometry":{"type":"Point","coordinates":[1.4342484899999999,42.99088958]}},{"type":"Feature","properties":{"nom":"Niaux","code":"09217","codeDepartement":"09","codeRegion":"76","codesPostaux":["09400"],"population":174},"geometry":{"type":"Point","coordinates":[1.5950015806451607,42.81493849462367]}},{"type":"Feature","properties":{"nom":"Orgeix","code":"09218","codeDepartement":"09","codeRegion":"76","codesPostaux":["09110"],"population":87},"geometry":{"type":"Point","coordinates":[1.8745364223300967,42.68582358252427]}},{"type":"Feature","properties":{"nom":"Orgibet","code":"09219","codeDepartement":"09","codeRegion":"76","codesPostaux":["09800"],"population":183},"geometry":{"type":"Point","coordinates":[0.9401632119565214,42.932229831521724]}},{"type":"Feature","properties":{"nom":"Orlu","code":"09220","codeDepartement":"09","codeRegion":"76","codesPostaux":["09110"],"population":171},"geometry":{"type":"Point","coordinates":[1.9322992219178083,42.66447887397261]}},{"type":"Feature","properties":{"nom":"Ornolac-Ussat-les-Bains","code":"09221","codeDepartement":"09","codeRegion":"76","codesPostaux":["09400"],"population":236},"geometry":{"type":"Point","coordinates":[1.6496638695652182,42.826095852173886]}},{"type":"Feature","properties":{"nom":"Orus","code":"09222","codeDepartement":"09","codeRegion":"76","codesPostaux":["09220"],"population":24},"geometry":{"type":"Point","coordinates":[1.5115546666666668,42.788693229166675]}},{"type":"Feature","properties":{"nom":"Oust","code":"09223","codeDepartement":"09","codeRegion":"76","codesPostaux":["09140"],"population":540},"geometry":{"type":"Point","coordinates":[1.2328840060240962,42.860066216867466]}},{"type":"Feature","properties":{"nom":"Pailhès","code":"09224","codeDepartement":"09","codeRegion":"76","codesPostaux":["09130"],"population":474},"geometry":{"type":"Point","coordinates":[1.4526942492211836,43.10745410903427]}},{"type":"Feature","properties":{"nom":"Pamiers","code":"09225","codeDepartement":"09","codeRegion":"76","codesPostaux":["09100"],"population":15688},"geometry":{"type":"Point","coordinates":[1.5933461168289305,43.1197569054242]}},{"type":"Feature","properties":{"nom":"Pech","code":"09226","codeDepartement":"09","codeRegion":"76","codesPostaux":["09310"],"population":39},"geometry":{"type":"Point","coordinates":[1.6903917990196071,42.7704684264706]}},{"type":"Feature","properties":{"nom":"Péreille","code":"09227","codeDepartement":"09","codeRegion":"76","codesPostaux":["09300"],"population":212},"geometry":{"type":"Point","coordinates":[1.8051051476510074,42.92820614765102]}},{"type":"Feature","properties":{"nom":"Perles-et-Castelet","code":"09228","codeDepartement":"09","codeRegion":"76","codesPostaux":["09110"],"population":223},"geometry":{"type":"Point","coordinates":[1.7738233291139238,42.722949012658255]}},{"type":"Feature","properties":{"nom":"Le Peyrat","code":"09229","codeDepartement":"09","codeRegion":"76","codesPostaux":["09600"],"population":479},"geometry":{"type":"Point","coordinates":[1.9296061888888887,42.95727819999999]}},{"type":"Feature","properties":{"nom":"Le Pla","code":"09230","codeDepartement":"09","codeRegion":"76","codesPostaux":["09460"],"population":56},"geometry":{"type":"Point","coordinates":[2.0505838465909103,42.69028703409091]}},{"type":"Feature","properties":{"nom":"Le Port","code":"09231","codeDepartement":"09","codeRegion":"76","codesPostaux":["09320"],"population":148},"geometry":{"type":"Point","coordinates":[1.388681059360731,42.8427863607306]}},{"type":"Feature","properties":{"nom":"Prades","code":"09232","codeDepartement":"09","codeRegion":"76","codesPostaux":["09110"],"population":35},"geometry":{"type":"Point","coordinates":[1.867846421052631,42.797351249999984]}},{"type":"Feature","properties":{"nom":"Pradettes","code":"09233","codeDepartement":"09","codeRegion":"76","codesPostaux":["09600"],"population":49},"geometry":{"type":"Point","coordinates":[1.823597114285713,42.99324983809525]}},{"type":"Feature","properties":{"nom":"Pradières","code":"09234","codeDepartement":"09","codeRegion":"76","codesPostaux":["09000"],"population":115},"geometry":{"type":"Point","coordinates":[1.6565579789473692,42.962599568421034]}},{"type":"Feature","properties":{"nom":"Prat-Bonrepaux","code":"09235","codeDepartement":"09","codeRegion":"76","codesPostaux":["09160"],"population":933},"geometry":{"type":"Point","coordinates":[1.0292611666666664,43.03544636190477]}},{"type":"Feature","properties":{"nom":"Prayols","code":"09236","codeDepartement":"09","codeRegion":"76","codesPostaux":["09000"],"population":377},"geometry":{"type":"Point","coordinates":[1.615805351351351,42.92564162162164]}},{"type":"Feature","properties":{"nom":"Le Puch","code":"09237","codeDepartement":"09","codeRegion":"76","codesPostaux":["09460"],"population":29},"geometry":{"type":"Point","coordinates":[2.10270428125,42.72434407812501]}},{"type":"Feature","properties":{"nom":"Les Pujols","code":"09238","codeDepartement":"09","codeRegion":"76","codesPostaux":["09100"],"population":790},"geometry":{"type":"Point","coordinates":[1.7136183007518795,43.09087027443613]}},{"type":"Feature","properties":{"nom":"Quérigut","code":"09239","codeDepartement":"09","codeRegion":"76","codesPostaux":["09460"],"population":135},"geometry":{"type":"Point","coordinates":[2.1131236322580644,42.686498225806474]}},{"type":"Feature","properties":{"nom":"Quié","code":"09240","codeDepartement":"09","codeRegion":"76","codesPostaux":["09400"],"population":302},"geometry":{"type":"Point","coordinates":[1.5933264224137924,42.84306727586205]}},{"type":"Feature","properties":{"nom":"Rabat-les-Trois-Seigneurs","code":"09241","codeDepartement":"09","codeRegion":"76","codesPostaux":["09400"],"population":351},"geometry":{"type":"Point","coordinates":[1.5193436750700264,42.84917882072831]}},{"type":"Feature","properties":{"nom":"Raissac","code":"09242","codeDepartement":"09","codeRegion":"76","codesPostaux":["09300"],"population":46},"geometry":{"type":"Point","coordinates":[1.8111061666666661,42.943080395833334]}},{"type":"Feature","properties":{"nom":"Régat","code":"09243","codeDepartement":"09","codeRegion":"76","codesPostaux":["09600"],"population":86},"geometry":{"type":"Point","coordinates":[1.8867849411764703,42.9870476117647]}},{"type":"Feature","properties":{"nom":"Rieucros","code":"09244","codeDepartement":"09","codeRegion":"76","codesPostaux":["09500"],"population":686},"geometry":{"type":"Point","coordinates":[1.7638887500000002,43.07834773809524]}},{"type":"Feature","properties":{"nom":"Rieux-de-Pelleport","code":"09245","codeDepartement":"09","codeRegion":"76","codesPostaux":["09120"],"population":1308},"geometry":{"type":"Point","coordinates":[1.5972764161490685,43.05870957142856]}},{"type":"Feature","properties":{"nom":"Rimont","code":"09246","codeDepartement":"09","codeRegion":"76","codesPostaux":["09420"],"population":528},"geometry":{"type":"Point","coordinates":[1.2881884082278487,42.98945608860761]}},{"type":"Feature","properties":{"nom":"Rivèrenert","code":"09247","codeDepartement":"09","codeRegion":"76","codesPostaux":["09200"],"population":177},"geometry":{"type":"Point","coordinates":[1.2553592786069656,42.956031507462725]}},{"type":"Feature","properties":{"nom":"Roquefixade","code":"09249","codeDepartement":"09","codeRegion":"76","codesPostaux":["09300"],"population":150},"geometry":{"type":"Point","coordinates":[1.7638312317596576,42.93034972103005]}},{"type":"Feature","properties":{"nom":"Roquefort-les-Cascades","code":"09250","codeDepartement":"09","codeRegion":"76","codesPostaux":["09300"],"population":91},"geometry":{"type":"Point","coordinates":[1.7381475465116287,42.96134765116279]}},{"type":"Feature","properties":{"nom":"Roumengoux","code":"09251","codeDepartement":"09","codeRegion":"76","codesPostaux":["09500"],"population":173},"geometry":{"type":"Point","coordinates":[1.923401803212852,43.076169381526114]}},{"type":"Feature","properties":{"nom":"Rouze","code":"09252","codeDepartement":"09","codeRegion":"76","codesPostaux":["09460"],"population":84},"geometry":{"type":"Point","coordinates":[2.0775110075757572,42.74003389393938]}},{"type":"Feature","properties":{"nom":"Sabarat","code":"09253","codeDepartement":"09","codeRegion":"76","codesPostaux":["09350"],"population":344},"geometry":{"type":"Point","coordinates":[1.4009054421052625,43.09716070526315]}},{"type":"Feature","properties":{"nom":"Saint-Amadou","code":"09254","codeDepartement":"09","codeRegion":"76","codesPostaux":["09100"],"population":246},"geometry":{"type":"Point","coordinates":[1.7146542875816997,43.110276771241836]}},{"type":"Feature","properties":{"nom":"Saint-Amans","code":"09255","codeDepartement":"09","codeRegion":"76","codesPostaux":["09100"],"population":45},"geometry":{"type":"Point","coordinates":[1.5476545031446531,43.15987095597486]}},{"type":"Feature","properties":{"nom":"Saint-Bauzeil","code":"09256","codeDepartement":"09","codeRegion":"76","codesPostaux":["09120","09100"],"population":59},"geometry":{"type":"Point","coordinates":[1.5787497345132744,43.08309492035398]}},{"type":"Feature","properties":{"nom":"Sainte-Croix-Volvestre","code":"09257","codeDepartement":"09","codeRegion":"76","codesPostaux":["09230"],"population":631},"geometry":{"type":"Point","coordinates":[1.1574281929411772,43.13304890117647]}},{"type":"Feature","properties":{"nom":"Saint-Félix-de-Rieutord","code":"09258","codeDepartement":"09","codeRegion":"76","codesPostaux":["09120"],"population":465},"geometry":{"type":"Point","coordinates":[1.6673440693069312,43.04301182178218]}},{"type":"Feature","properties":{"nom":"Saint-Félix-de-Tournegat","code":"09259","codeDepartement":"09","codeRegion":"76","codesPostaux":["09500"],"population":137},"geometry":{"type":"Point","coordinates":[1.7623532114537444,43.12250664757709]}},{"type":"Feature","properties":{"nom":"Sainte-Foi","code":"09260","codeDepartement":"09","codeRegion":"76","codesPostaux":["09500"],"population":25},"geometry":{"type":"Point","coordinates":[1.917143481751824,43.12541450364966]}},{"type":"Feature","properties":{"nom":"Saint-Girons","code":"09261","codeDepartement":"09","codeRegion":"76","codesPostaux":["09200"],"population":6353},"geometry":{"type":"Point","coordinates":[1.160805081784387,42.97918005576207]}},{"type":"Feature","properties":{"nom":"Saint-Jean-d'Aigues-Vives","code":"09262","codeDepartement":"09","codeRegion":"76","codesPostaux":["09300"],"population":388},"geometry":{"type":"Point","coordinates":[1.8717575445544552,42.91916355445544]}},{"type":"Feature","properties":{"nom":"Saint-Jean-du-Castillonnais","code":"09263","codeDepartement":"09","codeRegion":"76","codesPostaux":["09800"],"population":24},"geometry":{"type":"Point","coordinates":[0.9275297228260869,42.94580157065217]}},{"type":"Feature","properties":{"nom":"Saint-Jean-de-Verges","code":"09264","codeDepartement":"09","codeRegion":"76","codesPostaux":["09000"],"population":1228},"geometry":{"type":"Point","coordinates":[1.6322945933014357,43.011856741626765]}},{"type":"Feature","properties":{"nom":"Saint-Jean-du-Falga","code":"09265","codeDepartement":"09","codeRegion":"76","codesPostaux":["09100"],"population":2946},"geometry":{"type":"Point","coordinates":[1.6258091825396814,43.08682169047619]}},{"type":"Feature","properties":{"nom":"Saint-Julien-de-Gras-Capou","code":"09266","codeDepartement":"09","codeRegion":"76","codesPostaux":["09500"],"population":56},"geometry":{"type":"Point","coordinates":[1.8631257096774185,43.033417376344076]}},{"type":"Feature","properties":{"nom":"Saint-Lary","code":"09267","codeDepartement":"09","codeRegion":"76","codesPostaux":["09800"],"population":132},"geometry":{"type":"Point","coordinates":[0.8676356375661376,42.90476457936508]}},{"type":"Feature","properties":{"nom":"Saint-Lizier","code":"09268","codeDepartement":"09","codeRegion":"76","codesPostaux":["09190"],"population":1418},"geometry":{"type":"Point","coordinates":[1.1220232653846147,42.9950915846154]}},{"type":"Feature","properties":{"nom":"Saint-Martin-de-Caralp","code":"09269","codeDepartement":"09","codeRegion":"76","codesPostaux":["09000","09240"],"population":350},"geometry":{"type":"Point","coordinates":[1.5367688636363634,42.99112059090909]}},{"type":"Feature","properties":{"nom":"Saint-Martin-d'Oydes","code":"09270","codeDepartement":"09","codeRegion":"76","codesPostaux":["09100"],"population":231},"geometry":{"type":"Point","coordinates":[1.4859055559440555,43.164701590909104]}},{"type":"Feature","properties":{"nom":"Saint-Michel","code":"09271","codeDepartement":"09","codeRegion":"76","codesPostaux":["09100"],"population":72},"geometry":{"type":"Point","coordinates":[1.5001702522935776,43.13364489908254]}},{"type":"Feature","properties":{"nom":"Saint-Paul-de-Jarrat","code":"09272","codeDepartement":"09","codeRegion":"76","codesPostaux":["09000"],"population":1306},"geometry":{"type":"Point","coordinates":[1.6653178161434978,42.903220152466396]}},{"type":"Feature","properties":{"nom":"Saint-Pierre-de-Rivière","code":"09273","codeDepartement":"09","codeRegion":"76","codesPostaux":["09000"],"population":622},"geometry":{"type":"Point","coordinates":[1.5561150750000008,42.96502508333333]}},{"type":"Feature","properties":{"nom":"Saint-Quentin-la-Tour","code":"09274","codeDepartement":"09","codeRegion":"76","codesPostaux":["09500","09600"],"population":335},"geometry":{"type":"Point","coordinates":[1.9057172384341647,43.02837655516014]}},{"type":"Feature","properties":{"nom":"Saint-Quirc","code":"09275","codeDepartement":"09","codeRegion":"76","codesPostaux":["09700"],"population":375},"geometry":{"type":"Point","coordinates":[1.5014707368421059,43.279899142857154]}},{"type":"Feature","properties":{"nom":"Saint-Victor-Rouzaud","code":"09276","codeDepartement":"09","codeRegion":"76","codesPostaux":["09100","09120"],"population":241},"geometry":{"type":"Point","coordinates":[1.549081285714285,43.09128635714287]}},{"type":"Feature","properties":{"nom":"Saint-Ybars","code":"09277","codeDepartement":"09","codeRegion":"76","codesPostaux":["09210"],"population":646},"geometry":{"type":"Point","coordinates":[1.3892904367816097,43.23956574329501]}},{"type":"Feature","properties":{"nom":"Salsein","code":"09279","codeDepartement":"09","codeRegion":"76","codesPostaux":["09800"],"population":45},"geometry":{"type":"Point","coordinates":[1.0024322708333335,42.90436266666665]}},{"type":"Feature","properties":{"nom":"Saurat","code":"09280","codeDepartement":"09","codeRegion":"76","codesPostaux":["09400"],"population":635},"geometry":{"type":"Point","coordinates":[1.5104552518518524,42.8759807222222]}},{"type":"Feature","properties":{"nom":"Sautel","code":"09281","codeDepartement":"09","codeRegion":"76","codesPostaux":["09300"],"population":103},"geometry":{"type":"Point","coordinates":[1.8266719085714278,42.96787782285714]}},{"type":"Feature","properties":{"nom":"Saverdun","code":"09282","codeDepartement":"09","codeRegion":"76","codesPostaux":["09700"],"population":4772},"geometry":{"type":"Point","coordinates":[1.5530179003690034,43.21778684870848]}},{"type":"Feature","properties":{"nom":"Savignac-les-Ormeaux","code":"09283","codeDepartement":"09","codeRegion":"76","codesPostaux":["09110"],"population":376},"geometry":{"type":"Point","coordinates":[1.7738533163265298,42.676514826530614]}},{"type":"Feature","properties":{"nom":"Ségura","code":"09284","codeDepartement":"09","codeRegion":"76","codesPostaux":["09120"],"population":183},"geometry":{"type":"Point","coordinates":[1.693483999999999,43.034108984126995]}},{"type":"Feature","properties":{"nom":"Seix","code":"09285","codeDepartement":"09","codeRegion":"76","codesPostaux":["09140"],"population":706},"geometry":{"type":"Point","coordinates":[1.1584544896373052,42.82134119430051]}},{"type":"Feature","properties":{"nom":"Senconac","code":"09287","codeDepartement":"09","codeRegion":"76","codesPostaux":["09250"],"population":12},"geometry":{"type":"Point","coordinates":[1.715973016304348,42.81040811956521]}},{"type":"Feature","properties":{"nom":"Lorp-Sentaraille","code":"09289","codeDepartement":"09","codeRegion":"76","codesPostaux":["09190"],"population":1455},"geometry":{"type":"Point","coordinates":[1.1061125538461538,43.01661519999999]}},{"type":"Feature","properties":{"nom":"Sentein","code":"09290","codeDepartement":"09","codeRegion":"76","codesPostaux":["09800"],"population":152},"geometry":{"type":"Point","coordinates":[0.9308182408376963,42.844691183246084]}},{"type":"Feature","properties":{"nom":"Sentenac-d'Oust","code":"09291","codeDepartement":"09","codeRegion":"76","codesPostaux":["09140"],"population":109},"geometry":{"type":"Point","coordinates":[1.1331592795031056,42.860856621117996]}},{"type":"Feature","properties":{"nom":"Sentenac-de-Sérou","code":"09292","codeDepartement":"09","codeRegion":"76","codesPostaux":["09240"],"population":47},"geometry":{"type":"Point","coordinates":[1.3917854208754183,42.950866348484844]}},{"type":"Feature","properties":{"nom":"Serres-sur-Arget","code":"09293","codeDepartement":"09","codeRegion":"76","codesPostaux":["09000"],"population":718},"geometry":{"type":"Point","coordinates":[1.4996389243697474,42.967825546218506]}},{"type":"Feature","properties":{"nom":"Sieuras","code":"09294","codeDepartement":"09","codeRegion":"76","codesPostaux":["09130"],"population":93},"geometry":{"type":"Point","coordinates":[1.3394491025641033,43.191040928205126]}},{"type":"Feature","properties":{"nom":"Siguer","code":"09295","codeDepartement":"09","codeRegion":"76","codesPostaux":["09220"],"population":99},"geometry":{"type":"Point","coordinates":[1.5553907863247862,42.709655495726494]}},{"type":"Feature","properties":{"nom":"Aulos-Sinsat","code":"09296","codeDepartement":"09","codeRegion":"76","codesPostaux":["09310"],"population":173},"geometry":{"type":"Point","coordinates":[1.6634874797297292,42.799174837837825]}},{"type":"Feature","properties":{"nom":"Sor","code":"09297","codeDepartement":"09","codeRegion":"76","codesPostaux":["09800"],"population":29},"geometry":{"type":"Point","coordinates":[1.0111045454545455,42.920133077922074]}},{"type":"Feature","properties":{"nom":"Sorgeat","code":"09298","codeDepartement":"09","codeRegion":"76","codesPostaux":["09110"],"population":83},"geometry":{"type":"Point","coordinates":[1.8699889029126222,42.73599394174757]}},{"type":"Feature","properties":{"nom":"Soueix-Rogalle","code":"09299","codeDepartement":"09","codeRegion":"76","codesPostaux":["09140"],"population":422},"geometry":{"type":"Point","coordinates":[1.1997665934959356,42.898793544715446]}},{"type":"Feature","properties":{"nom":"Soula","code":"09300","codeDepartement":"09","codeRegion":"76","codesPostaux":["09000"],"population":183},"geometry":{"type":"Point","coordinates":[1.6980898641304345,42.939595380434774]}},{"type":"Feature","properties":{"nom":"Soulan","code":"09301","codeDepartement":"09","codeRegion":"76","codesPostaux":["09320"],"population":367},"geometry":{"type":"Point","coordinates":[1.2482459130434784,42.90643653846153]}},{"type":"Feature","properties":{"nom":"Surba","code":"09303","codeDepartement":"09","codeRegion":"76","codesPostaux":["09400"],"population":334},"geometry":{"type":"Point","coordinates":[1.5830211694915246,42.858459649717524]}},{"type":"Feature","properties":{"nom":"Suzan","code":"09304","codeDepartement":"09","codeRegion":"76","codesPostaux":["09240"],"population":17},"geometry":{"type":"Point","coordinates":[1.4301867777777777,43.02674088888888]}},{"type":"Feature","properties":{"nom":"Tabre","code":"09305","codeDepartement":"09","codeRegion":"76","codesPostaux":["09600"],"population":375},"geometry":{"type":"Point","coordinates":[1.8503517642276435,42.99196077235773]}},{"type":"Feature","properties":{"nom":"Tarascon-sur-Ariège","code":"09306","codeDepartement":"09","codeRegion":"76","codesPostaux":["09400"],"population":3138},"geometry":{"type":"Point","coordinates":[1.589824744252872,42.84817802298849]}},{"type":"Feature","properties":{"nom":"Taurignan-Castet","code":"09307","codeDepartement":"09","codeRegion":"76","codesPostaux":["09160"],"population":170},"geometry":{"type":"Point","coordinates":[1.1044743874999998,43.060190390625]}},{"type":"Feature","properties":{"nom":"Taurignan-Vieux","code":"09308","codeDepartement":"09","codeRegion":"76","codesPostaux":["09190"],"population":206},"geometry":{"type":"Point","coordinates":[1.1137531464968153,43.04693075796179]}},{"type":"Feature","properties":{"nom":"Teilhet","code":"09309","codeDepartement":"09","codeRegion":"76","codesPostaux":["09500"],"population":156},"geometry":{"type":"Point","coordinates":[1.7833172814814813,43.10151072592593]}},{"type":"Feature","properties":{"nom":"Thouars-sur-Arize","code":"09310","codeDepartement":"09","codeRegion":"76","codesPostaux":["09350"],"population":51},"geometry":{"type":"Point","coordinates":[1.2381184590163934,43.182778311475424]}},{"type":"Feature","properties":{"nom":"Tignac","code":"09311","codeDepartement":"09","codeRegion":"76","codesPostaux":["09110"],"population":24},"geometry":{"type":"Point","coordinates":[1.7970688974358973,42.74833880769232]}},{"type":"Feature","properties":{"nom":"La Tour-du-Crieu","code":"09312","codeDepartement":"09","codeRegion":"76","codesPostaux":["09100"],"population":3170},"geometry":{"type":"Point","coordinates":[1.6664601658536586,43.105182156097555]}},{"type":"Feature","properties":{"nom":"Tourtouse","code":"09313","codeDepartement":"09","codeRegion":"76","codesPostaux":["09230"],"population":141},"geometry":{"type":"Point","coordinates":[1.1297699644970416,43.0882868698225]}},{"type":"Feature","properties":{"nom":"Tourtrol","code":"09314","codeDepartement":"09","codeRegion":"76","codesPostaux":["09500"],"population":290},"geometry":{"type":"Point","coordinates":[1.8020644712643688,43.06998528735631]}},{"type":"Feature","properties":{"nom":"Trémoulet","code":"09315","codeDepartement":"09","codeRegion":"76","codesPostaux":["09700"],"population":123},"geometry":{"type":"Point","coordinates":[1.7155103090909096,43.15609968181819]}},{"type":"Feature","properties":{"nom":"Troye-d'Ariège","code":"09316","codeDepartement":"09","codeRegion":"76","codesPostaux":["09500"],"population":89},"geometry":{"type":"Point","coordinates":[1.8838971138461547,43.02610230153847]}},{"type":"Feature","properties":{"nom":"Unac","code":"09318","codeDepartement":"09","codeRegion":"76","codesPostaux":["09250"],"population":119},"geometry":{"type":"Point","coordinates":[1.7773546184210531,42.75498189473684]}},{"type":"Feature","properties":{"nom":"Unzent","code":"09319","codeDepartement":"09","codeRegion":"76","codesPostaux":["09100"],"population":119},"geometry":{"type":"Point","coordinates":[1.53332445508982,43.16858144311378]}},{"type":"Feature","properties":{"nom":"Urs","code":"09320","codeDepartement":"09","codeRegion":"76","codesPostaux":["09310"],"population":34},"geometry":{"type":"Point","coordinates":[1.7367161470588233,42.77681302941177]}},{"type":"Feature","properties":{"nom":"Ussat","code":"09321","codeDepartement":"09","codeRegion":"76","codesPostaux":["09400"],"population":330},"geometry":{"type":"Point","coordinates":[1.625188247422681,42.83632812371134]}},{"type":"Feature","properties":{"nom":"Ustou","code":"09322","codeDepartement":"09","codeRegion":"76","codesPostaux":["09140"],"population":315},"geometry":{"type":"Point","coordinates":[1.2474976754098366,42.7863020557377]}},{"type":"Feature","properties":{"nom":"Vals","code":"09323","codeDepartement":"09","codeRegion":"76","codesPostaux":["09500"],"population":101},"geometry":{"type":"Point","coordinates":[1.7534038674698795,43.103408891566254]}},{"type":"Feature","properties":{"nom":"Varilhes","code":"09324","codeDepartement":"09","codeRegion":"76","codesPostaux":["09120"],"population":3386},"geometry":{"type":"Point","coordinates":[1.6270145742971884,43.05610938554216]}},{"type":"Feature","properties":{"nom":"Vaychis","code":"09325","codeDepartement":"09","codeRegion":"76","codesPostaux":["09110"],"population":23},"geometry":{"type":"Point","coordinates":[1.8242877968749995,42.7449239375]}},{"type":"Feature","properties":{"nom":"Vèbre","code":"09326","codeDepartement":"09","codeRegion":"76","codesPostaux":["09310"],"population":126},"geometry":{"type":"Point","coordinates":[1.7190771452991458,42.76609134188031]}},{"type":"Feature","properties":{"nom":"Ventenac","code":"09327","codeDepartement":"09","codeRegion":"76","codesPostaux":["09120"],"population":233},"geometry":{"type":"Point","coordinates":[1.7271953651685377,42.996783623595505]}},{"type":"Feature","properties":{"nom":"Verdun","code":"09328","codeDepartement":"09","codeRegion":"76","codesPostaux":["09310"],"population":224},"geometry":{"type":"Point","coordinates":[1.6901438503401356,42.802290979591845]}},{"type":"Feature","properties":{"nom":"Vernajoul","code":"09329","codeDepartement":"09","codeRegion":"76","codesPostaux":["09000"],"population":645},"geometry":{"type":"Point","coordinates":[1.5908059298245614,42.99635578362575]}},{"type":"Feature","properties":{"nom":"Vernaux","code":"09330","codeDepartement":"09","codeRegion":"76","codesPostaux":["09250"],"population":29},"geometry":{"type":"Point","coordinates":[1.7762997999999999,42.78225387]}},{"type":"Feature","properties":{"nom":"Le Vernet","code":"09331","codeDepartement":"09","codeRegion":"76","codesPostaux":["09700","09100"],"population":690},"geometry":{"type":"Point","coordinates":[1.6040559999999997,43.185869506329105]}},{"type":"Feature","properties":{"nom":"Verniolle","code":"09332","codeDepartement":"09","codeRegion":"76","codesPostaux":["09340"],"population":2310},"geometry":{"type":"Point","coordinates":[1.6647783955223874,43.08188902611943]}},{"type":"Feature","properties":{"nom":"Val-de-Sos","code":"09334","codeDepartement":"09","codeRegion":"76","codesPostaux":["09220"],"population":656},"geometry":{"type":"Point","coordinates":[1.4848869727520437,42.77174014441415]}},{"type":"Feature","properties":{"nom":"Villeneuve","code":"09335","codeDepartement":"09","codeRegion":"76","codesPostaux":["09800"],"population":37},"geometry":{"type":"Point","coordinates":[0.9829265446428572,42.952877089285714]}},{"type":"Feature","properties":{"nom":"Villeneuve-d'Olmes","code":"09336","codeDepartement":"09","codeRegion":"76","codesPostaux":["09300"],"population":1002},"geometry":{"type":"Point","coordinates":[1.8219492611464962,42.91194698726113]}},{"type":"Feature","properties":{"nom":"Villeneuve-du-Latou","code":"09338","codeDepartement":"09","codeRegion":"76","codesPostaux":["09130"],"population":153},"geometry":{"type":"Point","coordinates":[1.4374299930555554,43.199436090277786]}},{"type":"Feature","properties":{"nom":"Villeneuve-du-Paréage","code":"09339","codeDepartement":"09","codeRegion":"76","codesPostaux":["09100"],"population":771},"geometry":{"type":"Point","coordinates":[1.638575330097088,43.15743268932038]}},{"type":"Feature","properties":{"nom":"Vira","code":"09340","codeDepartement":"09","codeRegion":"76","codesPostaux":["09120"],"population":163},"geometry":{"type":"Point","coordinates":[1.7582607567567565,43.047424581081074]}},{"type":"Feature","properties":{"nom":"Viviès","code":"09341","codeDepartement":"09","codeRegion":"76","codesPostaux":["09500"],"population":113},"geometry":{"type":"Point","coordinates":[1.7782229423076918,43.05885684615384]}},{"type":"Feature","properties":{"nom":"Sainte-Suzanne","code":"09342","codeDepartement":"09","codeRegion":"76","codesPostaux":["09130"],"population":237},"geometry":{"type":"Point","coordinates":[1.364212164285715,43.206623824999994]}}]}