{"type":"FeatureCollection","features":[{"type":"Feature","properties":{"nom":"Ailleville","code":"10002","codeDepartement":"10","codeRegion":"44","codesPostaux":["10200"],"population":258},"geometry":{"type":"Point","coordinates":[4.694300740506329,48.25350012658229]}},{"type":"Feature","properties":{"nom":"Aix-Villemaur-Pâlis","code":"10003","codeDepartement":"10","codeRegion":"44","codesPostaux":["10160","10190"],"population":3569},"geometry":{"type":"Point","coordinates":[3.72181712330623,48.23667524390245]}},{"type":"Feature","properties":{"nom":"Allibaudières","code":"10004","codeDepartement":"10","codeRegion":"44","codesPostaux":["10700"],"population":212},"geometry":{"type":"Point","coordinates":[4.119338082987553,48.582763580912854]}},{"type":"Feature","properties":{"nom":"Amance","code":"10005","codeDepartement":"10","codeRegion":"44","codesPostaux":["10140"],"population":284},"geometry":{"type":"Point","coordinates":[4.471799536423844,48.29733891655629]}},{"type":"Feature","properties":{"nom":"Arcis-sur-Aube","code":"10006","codeDepartement":"10","codeRegion":"44","codesPostaux":["10700"],"population":2835},"geometry":{"type":"Point","coordinates":[4.142137159624413,48.534550788732396]}},{"type":"Feature","properties":{"nom":"Arconville","code":"10007","codeDepartement":"10","codeRegion":"44","codesPostaux":["10200"],"population":107},"geometry":{"type":"Point","coordinates":[4.725607117647057,48.1578267764706]}},{"type":"Feature","properties":{"nom":"Argançon","code":"10008","codeDepartement":"10","codeRegion":"44","codesPostaux":["10140"],"population":105},"geometry":{"type":"Point","coordinates":[4.591191526970955,48.25090882572614]}},{"type":"Feature","properties":{"nom":"Arrelles","code":"10009","codeDepartement":"10","codeRegion":"44","codesPostaux":["10340"],"population":86},"geometry":{"type":"Point","coordinates":[4.27613917767654,48.04610803416855]}},{"type":"Feature","properties":{"nom":"Arrembécourt","code":"10010","codeDepartement":"10","codeRegion":"44","codesPostaux":["10330"],"population":51},"geometry":{"type":"Point","coordinates":[4.607997255411258,48.54679188311688]}},{"type":"Feature","properties":{"nom":"Arrentières","code":"10011","codeDepartement":"10","codeRegion":"44","codesPostaux":["10200"],"population":219},"geometry":{"type":"Point","coordinates":[4.741309808441562,48.268302087662335]}},{"type":"Feature","properties":{"nom":"Arsonval","code":"10012","codeDepartement":"10","codeRegion":"44","codesPostaux":["10200"],"population":330},"geometry":{"type":"Point","coordinates":[4.648180777358494,48.27845067924529]}},{"type":"Feature","properties":{"nom":"Assenay","code":"10013","codeDepartement":"10","codeRegion":"44","codesPostaux":["10320"],"population":146},"geometry":{"type":"Point","coordinates":[4.063929336363636,48.17895360909088]}},{"type":"Feature","properties":{"nom":"Assencières","code":"10014","codeDepartement":"10","codeRegion":"44","codesPostaux":["10220"],"population":172},"geometry":{"type":"Point","coordinates":[4.198602529411764,48.35669661176471]}},{"type":"Feature","properties":{"nom":"Aubeterre","code":"10015","codeDepartement":"10","codeRegion":"44","codesPostaux":["10150"],"population":344},"geometry":{"type":"Point","coordinates":[4.117612817679558,48.42648530939227]}},{"type":"Feature","properties":{"nom":"Aulnay","code":"10017","codeDepartement":"10","codeRegion":"44","codesPostaux":["10240"],"population":129},"geometry":{"type":"Point","coordinates":[4.41867771103896,48.47601107792211]}},{"type":"Feature","properties":{"nom":"Auxon","code":"10018","codeDepartement":"10","codeRegion":"44","codesPostaux":["10130"],"population":980},"geometry":{"type":"Point","coordinates":[3.9262230654396717,48.08670859509201]}},{"type":"Feature","properties":{"nom":"Val-d'Auzon","code":"10019","codeDepartement":"10","codeRegion":"44","codesPostaux":["10220"],"population":387},"geometry":{"type":"Point","coordinates":[4.365289558695651,48.4006025717392]}},{"type":"Feature","properties":{"nom":"Avant-lès-Marcilly","code":"10020","codeDepartement":"10","codeRegion":"44","codesPostaux":["10400"],"population":509},"geometry":{"type":"Point","coordinates":[3.563021464000001,48.432349752000015]}},{"type":"Feature","properties":{"nom":"Avant-lès-Ramerupt","code":"10021","codeDepartement":"10","codeRegion":"44","codesPostaux":["10240"],"population":156},"geometry":{"type":"Point","coordinates":[4.262616959866221,48.446771966555225]}},{"type":"Feature","properties":{"nom":"Avirey-Lingey","code":"10022","codeDepartement":"10","codeRegion":"44","codesPostaux":["10340"],"population":211},"geometry":{"type":"Point","coordinates":[4.2917303350000005,48.03057429000001]}},{"type":"Feature","properties":{"nom":"Avon-la-Pèze","code":"10023","codeDepartement":"10","codeRegion":"44","codesPostaux":["10290"],"population":196},"geometry":{"type":"Point","coordinates":[3.6500064099378875,48.38750344099379]}},{"type":"Feature","properties":{"nom":"Avreuil","code":"10024","codeDepartement":"10","codeRegion":"44","codesPostaux":["10130"],"population":158},"geometry":{"type":"Point","coordinates":[3.9997876070175478,48.05309905614035]}},{"type":"Feature","properties":{"nom":"Bagneux-la-Fosse","code":"10025","codeDepartement":"10","codeRegion":"44","codesPostaux":["10340"],"population":168},"geometry":{"type":"Point","coordinates":[4.291424230769229,48.00104583289121]}},{"type":"Feature","properties":{"nom":"Bailly-le-Franc","code":"10026","codeDepartement":"10","codeRegion":"44","codesPostaux":["10330"],"population":39},"geometry":{"type":"Point","coordinates":[4.6622102303921595,48.52047596568631]}},{"type":"Feature","properties":{"nom":"Balignicourt","code":"10027","codeDepartement":"10","codeRegion":"44","codesPostaux":["10330"],"population":62},"geometry":{"type":"Point","coordinates":[4.452371462121212,48.531880249999986]}},{"type":"Feature","properties":{"nom":"Balnot-la-Grange","code":"10028","codeDepartement":"10","codeRegion":"44","codesPostaux":["10210"],"population":122},"geometry":{"type":"Point","coordinates":[4.19628175680581,47.99133762976406]}},{"type":"Feature","properties":{"nom":"Balnot-sur-Laignes","code":"10029","codeDepartement":"10","codeRegion":"44","codesPostaux":["10110"],"population":154},"geometry":{"type":"Point","coordinates":[4.352789537735851,48.03868317924528]}},{"type":"Feature","properties":{"nom":"Barberey-Saint-Sulpice","code":"10030","codeDepartement":"10","codeRegion":"44","codesPostaux":["10600"],"population":1389},"geometry":{"type":"Point","coordinates":[4.030390294776121,48.3341794738806]}},{"type":"Feature","properties":{"nom":"Barbuise","code":"10031","codeDepartement":"10","codeRegion":"44","codesPostaux":["10400"],"population":449},"geometry":{"type":"Point","coordinates":[3.5705603515981745,48.54825830136985]}},{"type":"Feature","properties":{"nom":"Baroville","code":"10032","codeDepartement":"10","codeRegion":"44","codesPostaux":["10200"],"population":313},"geometry":{"type":"Point","coordinates":[4.744597412499995,48.18329138125]}},{"type":"Feature","properties":{"nom":"Bar-sur-Aube","code":"10033","codeDepartement":"10","codeRegion":"44","codesPostaux":["10200"],"population":4950},"geometry":{"type":"Point","coordinates":[4.71167013456464,48.23297635883903]}},{"type":"Feature","properties":{"nom":"Bar-sur-Seine","code":"10034","codeDepartement":"10","codeRegion":"44","codesPostaux":["10110"],"population":3033},"geometry":{"type":"Point","coordinates":[4.382170218750001,48.10608749835524]}},{"type":"Feature","properties":{"nom":"Bayel","code":"10035","codeDepartement":"10","codeRegion":"44","codesPostaux":["10310"],"population":765},"geometry":{"type":"Point","coordinates":[4.7891318717948765,48.194761109557135]}},{"type":"Feature","properties":{"nom":"Bercenay-en-Othe","code":"10037","codeDepartement":"10","codeRegion":"44","codesPostaux":["10190"],"population":474},"geometry":{"type":"Point","coordinates":[3.898773995238098,48.193249104761925]}},{"type":"Feature","properties":{"nom":"Bercenay-le-Hayer","code":"10038","codeDepartement":"10","codeRegion":"44","codesPostaux":["10290"],"population":187},"geometry":{"type":"Point","coordinates":[3.5943292711111092,48.3283191288889]}},{"type":"Feature","properties":{"nom":"Bergères","code":"10039","codeDepartement":"10","codeRegion":"44","codesPostaux":["10200"],"population":124},"geometry":{"type":"Point","coordinates":[4.672658240641712,48.183810732620316]}},{"type":"Feature","properties":{"nom":"Bernon","code":"10040","codeDepartement":"10","codeRegion":"44","codesPostaux":["10130"],"population":173},"geometry":{"type":"Point","coordinates":[3.996861813278006,47.98105512863071]}},{"type":"Feature","properties":{"nom":"Bertignolles","code":"10041","codeDepartement":"10","codeRegion":"44","codesPostaux":["10110"],"population":53},"geometry":{"type":"Point","coordinates":[4.512668060773478,48.134363497237565]}},{"type":"Feature","properties":{"nom":"Bérulle","code":"10042","codeDepartement":"10","codeRegion":"44","codesPostaux":["10160"],"population":246},"geometry":{"type":"Point","coordinates":[3.6751207224489786,48.17232051836736]}},{"type":"Feature","properties":{"nom":"Bessy","code":"10043","codeDepartement":"10","codeRegion":"44","codesPostaux":["10170"],"population":139},"geometry":{"type":"Point","coordinates":[4.025725106666667,48.54757131333331]}},{"type":"Feature","properties":{"nom":"Bétignicourt","code":"10044","codeDepartement":"10","codeRegion":"44","codesPostaux":["10500"],"population":32},"geometry":{"type":"Point","coordinates":[4.455828894366199,48.447848316901386]}},{"type":"Feature","properties":{"nom":"Beurey","code":"10045","codeDepartement":"10","codeRegion":"44","codesPostaux":["10140"],"population":201},"geometry":{"type":"Point","coordinates":[4.469271717105265,48.17664349999998]}},{"type":"Feature","properties":{"nom":"Blaincourt-sur-Aube","code":"10046","codeDepartement":"10","codeRegion":"44","codesPostaux":["10500"],"population":108},"geometry":{"type":"Point","coordinates":[4.455552356557377,48.38293537704919]}},{"type":"Feature","properties":{"nom":"Blignicourt","code":"10047","codeDepartement":"10","codeRegion":"44","codesPostaux":["10500"],"population":39},"geometry":{"type":"Point","coordinates":[4.540441112,48.45558872800001]}},{"type":"Feature","properties":{"nom":"Bligny","code":"10048","codeDepartement":"10","codeRegion":"44","codesPostaux":["10200"],"population":163},"geometry":{"type":"Point","coordinates":[4.609326915094336,48.177411761792484]}},{"type":"Feature","properties":{"nom":"Les Bordes-Aumont","code":"10049","codeDepartement":"10","codeRegion":"44","codesPostaux":["10800"],"population":541},"geometry":{"type":"Point","coordinates":[4.115606806763285,48.18893020289856]}},{"type":"Feature","properties":{"nom":"Bossancourt","code":"10050","codeDepartement":"10","codeRegion":"44","codesPostaux":["10140"],"population":207},"geometry":{"type":"Point","coordinates":[4.61415489423077,48.28401807692309]}},{"type":"Feature","properties":{"nom":"Bouilly","code":"10051","codeDepartement":"10","codeRegion":"44","codesPostaux":["10320"],"population":1055},"geometry":{"type":"Point","coordinates":[3.98715850929368,48.18257934572492]}},{"type":"Feature","properties":{"nom":"Boulages","code":"10052","codeDepartement":"10","codeRegion":"44","codesPostaux":["10380"],"population":225},"geometry":{"type":"Point","coordinates":[3.91732025568182,48.58218601704545]}},{"type":"Feature","properties":{"nom":"Bouranton","code":"10053","codeDepartement":"10","codeRegion":"44","codesPostaux":["10270"],"population":569},"geometry":{"type":"Point","coordinates":[4.177155983739836,48.3129360813008]}},{"type":"Feature","properties":{"nom":"Bourdenay","code":"10054","codeDepartement":"10","codeRegion":"44","codesPostaux":["10290"],"population":124},"geometry":{"type":"Point","coordinates":[3.5918450787037037,48.35883745370371]}},{"type":"Feature","properties":{"nom":"Bourguignons","code":"10055","codeDepartement":"10","codeRegion":"44","codesPostaux":["10110"],"population":291},"geometry":{"type":"Point","coordinates":[4.365668662404092,48.14439414066501]}},{"type":"Feature","properties":{"nom":"Bouy-Luxembourg","code":"10056","codeDepartement":"10","codeRegion":"44","codesPostaux":["10220"],"population":220},"geometry":{"type":"Point","coordinates":[4.245116966850829,48.375521160220984]}},{"type":"Feature","properties":{"nom":"Bouy-sur-Orvin","code":"10057","codeDepartement":"10","codeRegion":"44","codesPostaux":["10400"],"population":58},"geometry":{"type":"Point","coordinates":[3.4960102222222225,48.41740032367151]}},{"type":"Feature","properties":{"nom":"Bragelogne-Beauvoir","code":"10058","codeDepartement":"10","codeRegion":"44","codesPostaux":["10340"],"population":244},"geometry":{"type":"Point","coordinates":[4.262063902173914,47.96988659130435]}},{"type":"Feature","properties":{"nom":"Braux","code":"10059","codeDepartement":"10","codeRegion":"44","codesPostaux":["10500"],"population":104},"geometry":{"type":"Point","coordinates":[4.450793930555554,48.478779916666646]}},{"type":"Feature","properties":{"nom":"Bréviandes","code":"10060","codeDepartement":"10","codeRegion":"44","codesPostaux":["10450"],"population":2811},"geometry":{"type":"Point","coordinates":[4.106105993055557,48.25575996180559]}},{"type":"Feature","properties":{"nom":"Brévonnes","code":"10061","codeDepartement":"10","codeRegion":"44","codesPostaux":["10220"],"population":695},"geometry":{"type":"Point","coordinates":[4.412603552238807,48.34910341044779]}},{"type":"Feature","properties":{"nom":"Briel-sur-Barse","code":"10062","codeDepartement":"10","codeRegion":"44","codesPostaux":["10140"],"population":209},"geometry":{"type":"Point","coordinates":[4.358126697947213,48.21511502639295]}},{"type":"Feature","properties":{"nom":"Brienne-la-Vieille","code":"10063","codeDepartement":"10","codeRegion":"44","codesPostaux":["10500"],"population":435},"geometry":{"type":"Point","coordinates":[4.539140909698996,48.371844354515076]}},{"type":"Feature","properties":{"nom":"Brienne-le-Château","code":"10064","codeDepartement":"10","codeRegion":"44","codesPostaux":["10500"],"population":2868},"geometry":{"type":"Point","coordinates":[4.523263486166008,48.39310940711465]}},{"type":"Feature","properties":{"nom":"Brillecourt","code":"10065","codeDepartement":"10","codeRegion":"44","codesPostaux":["10240"],"population":93},"geometry":{"type":"Point","coordinates":[4.3756453319672115,48.472570340163976]}},{"type":"Feature","properties":{"nom":"Bucey-en-Othe","code":"10066","codeDepartement":"10","codeRegion":"44","codesPostaux":["10190"],"population":427},"geometry":{"type":"Point","coordinates":[3.873896769516726,48.25320675092938]}},{"type":"Feature","properties":{"nom":"Buchères","code":"10067","codeDepartement":"10","codeRegion":"44","codesPostaux":["10800"],"population":1605},"geometry":{"type":"Point","coordinates":[4.1192679691780825,48.23665826712331]}},{"type":"Feature","properties":{"nom":"Buxeuil","code":"10068","codeDepartement":"10","codeRegion":"44","codesPostaux":["10110"],"population":134},"geometry":{"type":"Point","coordinates":[4.403914995283017,48.05360041037737]}},{"type":"Feature","properties":{"nom":"Buxières-sur-Arce","code":"10069","codeDepartement":"10","codeRegion":"44","codesPostaux":["10110"],"population":124},"geometry":{"type":"Point","coordinates":[4.460134230158728,48.13545010317457]}},{"type":"Feature","properties":{"nom":"Celles-sur-Ource","code":"10070","codeDepartement":"10","codeRegion":"44","codesPostaux":["10110"],"population":504},"geometry":{"type":"Point","coordinates":[4.4234145379746845,48.07498716139243]}},{"type":"Feature","properties":{"nom":"Chacenay","code":"10071","codeDepartement":"10","codeRegion":"44","codesPostaux":["10110"],"population":47},"geometry":{"type":"Point","coordinates":[4.533733349137931,48.10688923706895]}},{"type":"Feature","properties":{"nom":"La Chaise","code":"10072","codeDepartement":"10","codeRegion":"44","codesPostaux":["10500"],"population":39},"geometry":{"type":"Point","coordinates":[4.668125624810895,48.35467369894101]}},{"type":"Feature","properties":{"nom":"Chalette-sur-Voire","code":"10073","codeDepartement":"10","codeRegion":"44","codesPostaux":["10500"],"population":136},"geometry":{"type":"Point","coordinates":[4.421726605042016,48.44808694957982]}},{"type":"Feature","properties":{"nom":"Chamoy","code":"10074","codeDepartement":"10","codeRegion":"44","codesPostaux":["10130"],"population":508},"geometry":{"type":"Point","coordinates":[3.9785000318725072,48.10557927091633]}},{"type":"Feature","properties":{"nom":"Champfleury","code":"10075","codeDepartement":"10","codeRegion":"44","codesPostaux":["10700"],"population":106},"geometry":{"type":"Point","coordinates":[4.032428299999999,48.61471728461539]}},{"type":"Feature","properties":{"nom":"Champignol-lez-Mondeville","code":"10076","codeDepartement":"10","codeRegion":"44","codesPostaux":["10200"],"population":291},"geometry":{"type":"Point","coordinates":[4.6812207258064475,48.126531555299565]}},{"type":"Feature","properties":{"nom":"Champigny-sur-Aube","code":"10077","codeDepartement":"10","codeRegion":"44","codesPostaux":["10700"],"population":104},"geometry":{"type":"Point","coordinates":[4.071967842931939,48.56383559685863]}},{"type":"Feature","properties":{"nom":"Champ-sur-Barse","code":"10078","codeDepartement":"10","codeRegion":"44","codesPostaux":["10140"],"population":27},"geometry":{"type":"Point","coordinates":[4.40996208533917,48.239435551422346]}},{"type":"Feature","properties":{"nom":"Channes","code":"10079","codeDepartement":"10","codeRegion":"44","codesPostaux":["10340"],"population":120},"geometry":{"type":"Point","coordinates":[4.260625986622073,47.9423359464883]}},{"type":"Feature","properties":{"nom":"Chaource","code":"10080","codeDepartement":"10","codeRegion":"44","codesPostaux":["10210"],"population":1077},"geometry":{"type":"Point","coordinates":[4.1356354436781615,48.05964289195405]}},{"type":"Feature","properties":{"nom":"La Chapelle-Saint-Luc","code":"10081","codeDepartement":"10","codeRegion":"44","codesPostaux":["10600"],"population":12796},"geometry":{"type":"Point","coordinates":[4.045487641666667,48.321232879166686]}},{"type":"Feature","properties":{"nom":"Chapelle-Vallon","code":"10082","codeDepartement":"10","codeRegion":"44","codesPostaux":["10700"],"population":244},"geometry":{"type":"Point","coordinates":[4.041507956521738,48.43224632608699]}},{"type":"Feature","properties":{"nom":"Chappes","code":"10083","codeDepartement":"10","codeRegion":"44","codesPostaux":["10260"],"population":317},"geometry":{"type":"Point","coordinates":[4.2551011440677975,48.162726940677956]}},{"type":"Feature","properties":{"nom":"Charmont-sous-Barbuise","code":"10084","codeDepartement":"10","codeRegion":"44","codesPostaux":["10150"],"population":1027},"geometry":{"type":"Point","coordinates":[4.180156543778802,48.41342052073733]}},{"type":"Feature","properties":{"nom":"Charmoy","code":"10085","codeDepartement":"10","codeRegion":"44","codesPostaux":["10290"],"population":75},"geometry":{"type":"Point","coordinates":[3.5784989699248113,48.393429548872184]}},{"type":"Feature","properties":{"nom":"Charny-le-Bachot","code":"10086","codeDepartement":"10","codeRegion":"44","codesPostaux":["10380"],"population":255},"geometry":{"type":"Point","coordinates":[3.94966027745665,48.55338169942196]}},{"type":"Feature","properties":{"nom":"Chaserey","code":"10087","codeDepartement":"10","codeRegion":"44","codesPostaux":["10210"],"population":54},"geometry":{"type":"Point","coordinates":[4.075231617021273,47.95208526950352]}},{"type":"Feature","properties":{"nom":"Châtres","code":"10089","codeDepartement":"10","codeRegion":"44","codesPostaux":["10510"],"population":701},"geometry":{"type":"Point","coordinates":[3.845162273148148,48.50546780555556]}},{"type":"Feature","properties":{"nom":"Chauchigny","code":"10090","codeDepartement":"10","codeRegion":"44","codesPostaux":["10170"],"population":255},"geometry":{"type":"Point","coordinates":[3.969504076923078,48.42340187692305]}},{"type":"Feature","properties":{"nom":"Chaudrey","code":"10091","codeDepartement":"10","codeRegion":"44","codesPostaux":["10240"],"population":147},"geometry":{"type":"Point","coordinates":[4.247910565836299,48.489435875444855]}},{"type":"Feature","properties":{"nom":"Chauffour-lès-Bailly","code":"10092","codeDepartement":"10","codeRegion":"44","codesPostaux":["10110"],"population":119},"geometry":{"type":"Point","coordinates":[4.318621428023036,48.18957838387706]}},{"type":"Feature","properties":{"nom":"Chaumesnil","code":"10093","codeDepartement":"10","codeRegion":"44","codesPostaux":["10500"],"population":100},"geometry":{"type":"Point","coordinates":[4.6285502791411055,48.35870209815952]}},{"type":"Feature","properties":{"nom":"Chavanges","code":"10094","codeDepartement":"10","codeRegion":"44","codesPostaux":["10330"],"population":594},"geometry":{"type":"Point","coordinates":[4.576409365909092,48.51773148181815]}},{"type":"Feature","properties":{"nom":"Le Chêne","code":"10095","codeDepartement":"10","codeRegion":"44","codesPostaux":["10700"],"population":304},"geometry":{"type":"Point","coordinates":[4.1716612354838745,48.55432018387095]}},{"type":"Feature","properties":{"nom":"Chennegy","code":"10096","codeDepartement":"10","codeRegion":"44","codesPostaux":["10190"],"population":439},"geometry":{"type":"Point","coordinates":[3.849216508823532,48.212871026470545]}},{"type":"Feature","properties":{"nom":"Chervey","code":"10097","codeDepartement":"10","codeRegion":"44","codesPostaux":["10110"],"population":165},"geometry":{"type":"Point","coordinates":[4.485622431372547,48.13155477777777]}},{"type":"Feature","properties":{"nom":"Chesley","code":"10098","codeDepartement":"10","codeRegion":"44","codesPostaux":["10210"],"population":326},"geometry":{"type":"Point","coordinates":[4.108566471111111,47.976743479999996]}},{"type":"Feature","properties":{"nom":"Chessy-les-Prés","code":"10099","codeDepartement":"10","codeRegion":"44","codesPostaux":["10130"],"population":506},"geometry":{"type":"Point","coordinates":[3.916917657841139,48.01873548065174]}},{"type":"Feature","properties":{"nom":"Clérey","code":"10100","codeDepartement":"10","codeRegion":"44","codesPostaux":["10390"],"population":1096},"geometry":{"type":"Point","coordinates":[4.196776591208788,48.206651318681345]}},{"type":"Feature","properties":{"nom":"Coclois","code":"10101","codeDepartement":"10","codeRegion":"44","codesPostaux":["10240"],"population":177},"geometry":{"type":"Point","coordinates":[4.337411957894736,48.4761816736842]}},{"type":"Feature","properties":{"nom":"Colombé-la-Fosse","code":"10102","codeDepartement":"10","codeRegion":"44","codesPostaux":["10200"],"population":192},"geometry":{"type":"Point","coordinates":[4.788945523148151,48.270845754629605]}},{"type":"Feature","properties":{"nom":"Colombé-le-Sec","code":"10103","codeDepartement":"10","codeRegion":"44","codesPostaux":["10200"],"population":147},"geometry":{"type":"Point","coordinates":[4.804878701754383,48.25694609210525]}},{"type":"Feature","properties":{"nom":"Cormost","code":"10104","codeDepartement":"10","codeRegion":"44","codesPostaux":["10800"],"population":309},"geometry":{"type":"Point","coordinates":[4.137718345268543,48.15769567519179]}},{"type":"Feature","properties":{"nom":"Courcelles-sur-Voire","code":"10105","codeDepartement":"10","codeRegion":"44","codesPostaux":["10500"],"population":26},"geometry":{"type":"Point","coordinates":[4.5324529625,48.47910900000003]}},{"type":"Feature","properties":{"nom":"Courceroy","code":"10106","codeDepartement":"10","codeRegion":"44","codesPostaux":["10400"],"population":126},"geometry":{"type":"Point","coordinates":[3.3997539894736843,48.47062143508771]}},{"type":"Feature","properties":{"nom":"Coursan-en-Othe","code":"10107","codeDepartement":"10","codeRegion":"44","codesPostaux":["10130"],"population":105},"geometry":{"type":"Point","coordinates":[3.8252980635593214,48.078476283898304]}},{"type":"Feature","properties":{"nom":"Courtaoult","code":"10108","codeDepartement":"10","codeRegion":"44","codesPostaux":["10130"],"population":88},"geometry":{"type":"Point","coordinates":[3.8736196010101023,48.02438564393939]}},{"type":"Feature","properties":{"nom":"Courtenot","code":"10109","codeDepartement":"10","codeRegion":"44","codesPostaux":["10260"],"population":228},"geometry":{"type":"Point","coordinates":[4.316364770833334,48.152423348958315]}},{"type":"Feature","properties":{"nom":"Courteranges","code":"10110","codeDepartement":"10","codeRegion":"44","codesPostaux":["10270"],"population":568},"geometry":{"type":"Point","coordinates":[4.222269792968749,48.266730554687506]}},{"type":"Feature","properties":{"nom":"Courteron","code":"10111","codeDepartement":"10","codeRegion":"44","codesPostaux":["10250"],"population":106},"geometry":{"type":"Point","coordinates":[4.463880564912285,48.017917933333294]}},{"type":"Feature","properties":{"nom":"Coussegrey","code":"10112","codeDepartement":"10","codeRegion":"44","codesPostaux":["10210"],"population":197},"geometry":{"type":"Point","coordinates":[4.0292169494680845,47.95743089627658]}},{"type":"Feature","properties":{"nom":"Couvignon","code":"10113","codeDepartement":"10","codeRegion":"44","codesPostaux":["10200"],"population":204},"geometry":{"type":"Point","coordinates":[4.6701743846153825,48.201323886877816]}},{"type":"Feature","properties":{"nom":"Crancey","code":"10114","codeDepartement":"10","codeRegion":"44","codesPostaux":["10100"],"population":730},"geometry":{"type":"Point","coordinates":[3.6405577605985036,48.52349588778056]}},{"type":"Feature","properties":{"nom":"Creney-près-Troyes","code":"10115","codeDepartement":"10","codeRegion":"44","codesPostaux":["10150"],"population":1777},"geometry":{"type":"Point","coordinates":[4.130183096491228,48.337556004385945]}},{"type":"Feature","properties":{"nom":"Crésantignes","code":"10116","codeDepartement":"10","codeRegion":"44","codesPostaux":["10320"],"population":312},"geometry":{"type":"Point","coordinates":[4.021278200000001,48.1413553]}},{"type":"Feature","properties":{"nom":"Crespy-le-Neuf","code":"10117","codeDepartement":"10","codeRegion":"44","codesPostaux":["10500"],"population":152},"geometry":{"type":"Point","coordinates":[4.611672441269843,48.39873993650794]}},{"type":"Feature","properties":{"nom":"Les Croûtes","code":"10118","codeDepartement":"10","codeRegion":"44","codesPostaux":["10130"],"population":100},"geometry":{"type":"Point","coordinates":[3.863514733590734,47.99707331660232]}},{"type":"Feature","properties":{"nom":"Cunfin","code":"10119","codeDepartement":"10","codeRegion":"44","codesPostaux":["10360"],"population":181},"geometry":{"type":"Point","coordinates":[4.675504262820516,48.04158392948718]}},{"type":"Feature","properties":{"nom":"Cussangy","code":"10120","codeDepartement":"10","codeRegion":"44","codesPostaux":["10210"],"population":235},"geometry":{"type":"Point","coordinates":[4.080659165116278,48.02555842325579]}},{"type":"Feature","properties":{"nom":"Dampierre","code":"10121","codeDepartement":"10","codeRegion":"44","codesPostaux":["10240"],"population":290},"geometry":{"type":"Point","coordinates":[4.36340043939394,48.567431494949496]}},{"type":"Feature","properties":{"nom":"Davrey","code":"10122","codeDepartement":"10","codeRegion":"44","codesPostaux":["10130"],"population":247},"geometry":{"type":"Point","coordinates":[3.954333389285714,48.04924145000004]}},{"type":"Feature","properties":{"nom":"Dienville","code":"10123","codeDepartement":"10","codeRegion":"44","codesPostaux":["10500"],"population":878},"geometry":{"type":"Point","coordinates":[4.5080278789144055,48.32369826096032]}},{"type":"Feature","properties":{"nom":"Dierrey-Saint-Julien","code":"10124","codeDepartement":"10","codeRegion":"44","codesPostaux":["10190"],"population":258},"geometry":{"type":"Point","coordinates":[3.8318894238095234,48.300837861904746]}},{"type":"Feature","properties":{"nom":"Dierrey-Saint-Pierre","code":"10125","codeDepartement":"10","codeRegion":"44","codesPostaux":["10190"],"population":293},"geometry":{"type":"Point","coordinates":[3.8419849533898303,48.32809566949155]}},{"type":"Feature","properties":{"nom":"Dolancourt","code":"10126","codeDepartement":"10","codeRegion":"44","codesPostaux":["10200"],"population":137},"geometry":{"type":"Point","coordinates":[4.612982065217391,48.26943559420292]}},{"type":"Feature","properties":{"nom":"Dommartin-le-Coq","code":"10127","codeDepartement":"10","codeRegion":"44","codesPostaux":["10240"],"population":65},"geometry":{"type":"Point","coordinates":[4.3513580985221685,48.49543408866994]}},{"type":"Feature","properties":{"nom":"Donnement","code":"10128","codeDepartement":"10","codeRegion":"44","codesPostaux":["10330"],"population":79},"geometry":{"type":"Point","coordinates":[4.431030554621849,48.518507882352935]}},{"type":"Feature","properties":{"nom":"Dosches","code":"10129","codeDepartement":"10","codeRegion":"44","codesPostaux":["10220"],"population":294},"geometry":{"type":"Point","coordinates":[4.2843819595505614,48.30411618426963]}},{"type":"Feature","properties":{"nom":"Dosnon","code":"10130","codeDepartement":"10","codeRegion":"44","codesPostaux":["10700"],"population":110},"geometry":{"type":"Point","coordinates":[4.243225217391305,48.615738698369526]}},{"type":"Feature","properties":{"nom":"Droupt-Saint-Basle","code":"10131","codeDepartement":"10","codeRegion":"44","codesPostaux":["10170"],"population":352},"geometry":{"type":"Point","coordinates":[3.945876891129031,48.48174946774196]}},{"type":"Feature","properties":{"nom":"Droupt-Sainte-Marie","code":"10132","codeDepartement":"10","codeRegion":"44","codesPostaux":["10170"],"population":237},"geometry":{"type":"Point","coordinates":[3.9258541259259263,48.493083022222265]}},{"type":"Feature","properties":{"nom":"Eaux-Puiseaux","code":"10133","codeDepartement":"10","codeRegion":"44","codesPostaux":["10130"],"population":253},"geometry":{"type":"Point","coordinates":[3.884136090425533,48.11930487765962]}},{"type":"Feature","properties":{"nom":"Échemines","code":"10134","codeDepartement":"10","codeRegion":"44","codesPostaux":["10350"],"population":100},"geometry":{"type":"Point","coordinates":[3.8355523105590072,48.38613565217391]}},{"type":"Feature","properties":{"nom":"Éclance","code":"10135","codeDepartement":"10","codeRegion":"44","codesPostaux":["10200"],"population":101},"geometry":{"type":"Point","coordinates":[4.640435730909088,48.303464610909074]}},{"type":"Feature","properties":{"nom":"Éguilly-sous-Bois","code":"10136","codeDepartement":"10","codeRegion":"44","codesPostaux":["10110"],"population":120},"geometry":{"type":"Point","coordinates":[4.5413190297029695,48.136269712871254]}},{"type":"Feature","properties":{"nom":"Engente","code":"10137","codeDepartement":"10","codeRegion":"44","codesPostaux":["10200"],"population":38},"geometry":{"type":"Point","coordinates":[4.761634119496854,48.27836412578619]}},{"type":"Feature","properties":{"nom":"Épagne","code":"10138","codeDepartement":"10","codeRegion":"44","codesPostaux":["10500"],"population":132},"geometry":{"type":"Point","coordinates":[4.465526713592229,48.39875902427183]}},{"type":"Feature","properties":{"nom":"Épothémont","code":"10139","codeDepartement":"10","codeRegion":"44","codesPostaux":["10500"],"population":179},"geometry":{"type":"Point","coordinates":[4.66160461142857,48.41483333428569]}},{"type":"Feature","properties":{"nom":"Ervy-le-Châtel","code":"10140","codeDepartement":"10","codeRegion":"44","codesPostaux":["10130"],"population":1218},"geometry":{"type":"Point","coordinates":[3.912434646441076,48.05352045040836]}},{"type":"Feature","properties":{"nom":"Essoyes","code":"10141","codeDepartement":"10","codeRegion":"44","codesPostaux":["10360"],"population":728},"geometry":{"type":"Point","coordinates":[4.542728072847681,48.04941044370861]}},{"type":"Feature","properties":{"nom":"Estissac","code":"10142","codeDepartement":"10","codeRegion":"44","codesPostaux":["10190"],"population":1870},"geometry":{"type":"Point","coordinates":[3.8103131978319813,48.25057191056911]}},{"type":"Feature","properties":{"nom":"Étourvy","code":"10143","codeDepartement":"10","codeRegion":"44","codesPostaux":["10210"],"population":174},"geometry":{"type":"Point","coordinates":[4.127565000000002,47.94726745276876]}},{"type":"Feature","properties":{"nom":"Étrelles-sur-Aube","code":"10144","codeDepartement":"10","codeRegion":"44","codesPostaux":["10170"],"population":156},"geometry":{"type":"Point","coordinates":[3.8724569593908647,48.57043006598987]}},{"type":"Feature","properties":{"nom":"Faux-Villecerf","code":"10145","codeDepartement":"10","codeRegion":"44","codesPostaux":["10290"],"population":221},"geometry":{"type":"Point","coordinates":[3.74288590954774,48.325678527638196]}},{"type":"Feature","properties":{"nom":"Fay-lès-Marcilly","code":"10146","codeDepartement":"10","codeRegion":"44","codesPostaux":["10290"],"population":86},"geometry":{"type":"Point","coordinates":[3.6061676422018336,48.401437963302754]}},{"type":"Feature","properties":{"nom":"Fays-la-Chapelle","code":"10147","codeDepartement":"10","codeRegion":"44","codesPostaux":["10320"],"population":133},"geometry":{"type":"Point","coordinates":[4.01956547222222,48.131112875]}},{"type":"Feature","properties":{"nom":"Ferreux-Quincey","code":"10148","codeDepartement":"10","codeRegion":"44","codesPostaux":["10400"],"population":370},"geometry":{"type":"Point","coordinates":[3.600636115000001,48.458229585000005]}},{"type":"Feature","properties":{"nom":"Feuges","code":"10149","codeDepartement":"10","codeRegion":"44","codesPostaux":["10150"],"population":330},"geometry":{"type":"Point","coordinates":[4.1069550166666655,48.39476035833331]}},{"type":"Feature","properties":{"nom":"Fontaine","code":"10150","codeDepartement":"10","codeRegion":"44","codesPostaux":["10200"],"population":259},"geometry":{"type":"Point","coordinates":[4.713319184049078,48.20853773619632]}},{"type":"Feature","properties":{"nom":"Fontaine-les-Grès","code":"10151","codeDepartement":"10","codeRegion":"44","codesPostaux":["10280"],"population":874},"geometry":{"type":"Point","coordinates":[3.8974608958333343,48.418626861111115]}},{"type":"Feature","properties":{"nom":"Fontaine-Mâcon","code":"10153","codeDepartement":"10","codeRegion":"44","codesPostaux":["10400"],"population":667},"geometry":{"type":"Point","coordinates":[3.508264597826087,48.454521228260894]}},{"type":"Feature","properties":{"nom":"Fontenay-de-Bossery","code":"10154","codeDepartement":"10","codeRegion":"44","codesPostaux":["10400"],"population":73},"geometry":{"type":"Point","coordinates":[3.468808380281691,48.44985487323944]}},{"type":"Feature","properties":{"nom":"Fontette","code":"10155","codeDepartement":"10","codeRegion":"44","codesPostaux":["10360"],"population":201},"geometry":{"type":"Point","coordinates":[4.61042355448718,48.07677472756409]}},{"type":"Feature","properties":{"nom":"Fontvannes","code":"10156","codeDepartement":"10","codeRegion":"44","codesPostaux":["10190"],"population":722},"geometry":{"type":"Point","coordinates":[3.8742161310679624,48.279321344660225]}},{"type":"Feature","properties":{"nom":"La Fosse-Corduan","code":"10157","codeDepartement":"10","codeRegion":"44","codesPostaux":["10100"],"population":214},"geometry":{"type":"Point","coordinates":[3.6581782544378676,48.44082931952661]}},{"type":"Feature","properties":{"nom":"Fouchères","code":"10158","codeDepartement":"10","codeRegion":"44","codesPostaux":["10260"],"population":526},"geometry":{"type":"Point","coordinates":[4.274394433823531,48.14970644852943]}},{"type":"Feature","properties":{"nom":"Fralignes","code":"10159","codeDepartement":"10","codeRegion":"44","codesPostaux":["10110"],"population":89},"geometry":{"type":"Point","coordinates":[4.379099465608465,48.16355704232807]}},{"type":"Feature","properties":{"nom":"Fravaux","code":"10160","codeDepartement":"10","codeRegion":"44","codesPostaux":["10200"],"population":54},"geometry":{"type":"Point","coordinates":[4.6446635895522395,48.235542604477615]}},{"type":"Feature","properties":{"nom":"Fresnay","code":"10161","codeDepartement":"10","codeRegion":"44","codesPostaux":["10200"],"population":45},"geometry":{"type":"Point","coordinates":[4.755594130890056,48.30927826701569]}},{"type":"Feature","properties":{"nom":"Fresnoy-le-Château","code":"10162","codeDepartement":"10","codeRegion":"44","codesPostaux":["10270"],"population":274},"geometry":{"type":"Point","coordinates":[4.238215118534482,48.22756040732757]}},{"type":"Feature","properties":{"nom":"Fuligny","code":"10163","codeDepartement":"10","codeRegion":"44","codesPostaux":["10200"],"population":48},"geometry":{"type":"Point","coordinates":[4.696078958656333,48.34102341343669]}},{"type":"Feature","properties":{"nom":"Gélannes","code":"10164","codeDepartement":"10","codeRegion":"44","codesPostaux":["10100"],"population":739},"geometry":{"type":"Point","coordinates":[3.6649224645161294,48.47660283225806]}},{"type":"Feature","properties":{"nom":"Géraudot","code":"10165","codeDepartement":"10","codeRegion":"44","codesPostaux":["10220"],"population":337},"geometry":{"type":"Point","coordinates":[4.326005447154467,48.30335356910563]}},{"type":"Feature","properties":{"nom":"Les Grandes-Chapelles","code":"10166","codeDepartement":"10","codeRegion":"44","codesPostaux":["10170"],"population":391},"geometry":{"type":"Point","coordinates":[4.029375734463277,48.466500966101684]}},{"type":"Feature","properties":{"nom":"Grandville","code":"10167","codeDepartement":"10","codeRegion":"44","codesPostaux":["10700"],"population":97},"geometry":{"type":"Point","coordinates":[4.233741045714287,48.59360229714285]}},{"type":"Feature","properties":{"nom":"Les Granges","code":"10168","codeDepartement":"10","codeRegion":"44","codesPostaux":["10210"],"population":75},"geometry":{"type":"Point","coordinates":[4.062608202531645,48.05756536708861]}},{"type":"Feature","properties":{"nom":"Gumery","code":"10169","codeDepartement":"10","codeRegion":"44","codesPostaux":["10400"],"population":244},"geometry":{"type":"Point","coordinates":[3.408049300000001,48.437519183999946]}},{"type":"Feature","properties":{"nom":"Gyé-sur-Seine","code":"10170","codeDepartement":"10","codeRegion":"44","codesPostaux":["10250"],"population":495},"geometry":{"type":"Point","coordinates":[4.444028548309181,48.01631937198071]}},{"type":"Feature","properties":{"nom":"Hampigny","code":"10171","codeDepartement":"10","codeRegion":"44","codesPostaux":["10500"],"population":242},"geometry":{"type":"Point","coordinates":[4.6062348006134926,48.462107720858896]}},{"type":"Feature","properties":{"nom":"Herbisse","code":"10172","codeDepartement":"10","codeRegion":"44","codesPostaux":["10700"],"population":171},"geometry":{"type":"Point","coordinates":[4.125123368749999,48.61318978125]}},{"type":"Feature","properties":{"nom":"Isle-Aumont","code":"10173","codeDepartement":"10","codeRegion":"44","codesPostaux":["10800"],"population":480},"geometry":{"type":"Point","coordinates":[4.122222951219512,48.20764942439022]}},{"type":"Feature","properties":{"nom":"Isle-Aubigny","code":"10174","codeDepartement":"10","codeRegion":"44","codesPostaux":["10240"],"population":184},"geometry":{"type":"Point","coordinates":[4.264648976939203,48.53081077987426]}},{"type":"Feature","properties":{"nom":"Jasseines","code":"10175","codeDepartement":"10","codeRegion":"44","codesPostaux":["10330"],"population":178},"geometry":{"type":"Point","coordinates":[4.3893420308641975,48.50611909259262]}},{"type":"Feature","properties":{"nom":"Jaucourt","code":"10176","codeDepartement":"10","codeRegion":"44","codesPostaux":["10200"],"population":167},"geometry":{"type":"Point","coordinates":[4.643613338624339,48.2561148941799]}},{"type":"Feature","properties":{"nom":"Javernant","code":"10177","codeDepartement":"10","codeRegion":"44","codesPostaux":["10320"],"population":153},"geometry":{"type":"Point","coordinates":[3.996065222222223,48.15882138194442]}},{"type":"Feature","properties":{"nom":"Jessains","code":"10178","codeDepartement":"10","codeRegion":"44","codesPostaux":["10140"],"population":276},"geometry":{"type":"Point","coordinates":[4.569828228346457,48.284893503936985]}},{"type":"Feature","properties":{"nom":"Jeugny","code":"10179","codeDepartement":"10","codeRegion":"44","codesPostaux":["10320"],"population":499},"geometry":{"type":"Point","coordinates":[4.040812344827585,48.12416300862069]}},{"type":"Feature","properties":{"nom":"Joncreuil","code":"10180","codeDepartement":"10","codeRegion":"44","codesPostaux":["10330"],"population":90},"geometry":{"type":"Point","coordinates":[4.622036539823009,48.52821250884954]}},{"type":"Feature","properties":{"nom":"Jully-sur-Sarce","code":"10181","codeDepartement":"10","codeRegion":"44","codesPostaux":["10260"],"population":249},"geometry":{"type":"Point","coordinates":[4.288243918793508,48.105233496519766]}},{"type":"Feature","properties":{"nom":"Juvancourt","code":"10182","codeDepartement":"10","codeRegion":"44","codesPostaux":["10310"],"population":121},"geometry":{"type":"Point","coordinates":[4.807525624309393,48.12111775138123]}},{"type":"Feature","properties":{"nom":"Juvanzé","code":"10183","codeDepartement":"10","codeRegion":"44","codesPostaux":["10140"],"population":34},"geometry":{"type":"Point","coordinates":[4.5838267683615825,48.322712225988695]}},{"type":"Feature","properties":{"nom":"Juzanvigny","code":"10184","codeDepartement":"10","codeRegion":"44","codesPostaux":["10500"],"population":127},"geometry":{"type":"Point","coordinates":[4.608335222222227,48.41683627203064]}},{"type":"Feature","properties":{"nom":"Lagesse","code":"10185","codeDepartement":"10","codeRegion":"44","codesPostaux":["10210"],"population":204},"geometry":{"type":"Point","coordinates":[4.134633798122069,48.01750508920189]}},{"type":"Feature","properties":{"nom":"Laines-aux-Bois","code":"10186","codeDepartement":"10","codeRegion":"44","codesPostaux":["10120"],"population":520},"geometry":{"type":"Point","coordinates":[3.9709894835164823,48.22240984065932]}},{"type":"Feature","properties":{"nom":"Landreville","code":"10187","codeDepartement":"10","codeRegion":"44","codesPostaux":["10110"],"population":462},"geometry":{"type":"Point","coordinates":[4.4663758968749985,48.07389778125002]}},{"type":"Feature","properties":{"nom":"Lantages","code":"10188","codeDepartement":"10","codeRegion":"44","codesPostaux":["10210"],"population":241},"geometry":{"type":"Point","coordinates":[4.212896749354004,48.07897634108527]}},{"type":"Feature","properties":{"nom":"Lassicourt","code":"10189","codeDepartement":"10","codeRegion":"44","codesPostaux":["10500"],"population":64},"geometry":{"type":"Point","coordinates":[4.495822162921348,48.43772984269664]}},{"type":"Feature","properties":{"nom":"Laubressel","code":"10190","codeDepartement":"10","codeRegion":"44","codesPostaux":["10270"],"population":537},"geometry":{"type":"Point","coordinates":[4.230878240143371,48.297967318996385]}},{"type":"Feature","properties":{"nom":"Lavau","code":"10191","codeDepartement":"10","codeRegion":"44","codesPostaux":["10150"],"population":966},"geometry":{"type":"Point","coordinates":[4.087728285,48.32814349999995]}},{"type":"Feature","properties":{"nom":"Lentilles","code":"10192","codeDepartement":"10","codeRegion":"44","codesPostaux":["10330"],"population":126},"geometry":{"type":"Point","coordinates":[4.630038876957495,48.486804440715844]}},{"type":"Feature","properties":{"nom":"Lesmont","code":"10193","codeDepartement":"10","codeRegion":"44","codesPostaux":["10500"],"population":308},"geometry":{"type":"Point","coordinates":[4.422428161849711,48.4333422398844]}},{"type":"Feature","properties":{"nom":"Lévigny","code":"10194","codeDepartement":"10","codeRegion":"44","codesPostaux":["10200"],"population":97},"geometry":{"type":"Point","coordinates":[4.705858385620916,48.29705066013075]}},{"type":"Feature","properties":{"nom":"Lhuître","code":"10195","codeDepartement":"10","codeRegion":"44","codesPostaux":["10700"],"population":297},"geometry":{"type":"Point","coordinates":[4.266902908396944,48.57468590458014]}},{"type":"Feature","properties":{"nom":"Lignières","code":"10196","codeDepartement":"10","codeRegion":"44","codesPostaux":["10130"],"population":214},"geometry":{"type":"Point","coordinates":[3.965785602787455,47.95824264808362]}},{"type":"Feature","properties":{"nom":"Lignol-le-Château","code":"10197","codeDepartement":"10","codeRegion":"44","codesPostaux":["10200"],"population":200},"geometry":{"type":"Point","coordinates":[4.80919874936709,48.21386531645568]}},{"type":"Feature","properties":{"nom":"Lirey","code":"10198","codeDepartement":"10","codeRegion":"44","codesPostaux":["10320"],"population":106},"geometry":{"type":"Point","coordinates":[4.043569815126051,48.16026485714287]}},{"type":"Feature","properties":{"nom":"Loches-sur-Ource","code":"10199","codeDepartement":"10","codeRegion":"44","codesPostaux":["10110"],"population":357},"geometry":{"type":"Point","coordinates":[4.503480410344826,48.069691413793116]}},{"type":"Feature","properties":{"nom":"La Loge-aux-Chèvres","code":"10200","codeDepartement":"10","codeRegion":"44","codesPostaux":["10140"],"population":85},"geometry":{"type":"Point","coordinates":[4.405214170588238,48.2687544882353]}},{"type":"Feature","properties":{"nom":"La Loge-Pomblin","code":"10201","codeDepartement":"10","codeRegion":"44","codesPostaux":["10210"],"population":67},"geometry":{"type":"Point","coordinates":[4.040274594594597,48.06060360810807]}},{"type":"Feature","properties":{"nom":"Les Loges-Margueron","code":"10202","codeDepartement":"10","codeRegion":"44","codesPostaux":["10210"],"population":197},"geometry":{"type":"Point","coordinates":[4.11251704180064,48.0838856398714]}},{"type":"Feature","properties":{"nom":"Longchamp-sur-Aujon","code":"10203","codeDepartement":"10","codeRegion":"44","codesPostaux":["10310"],"population":422},"geometry":{"type":"Point","coordinates":[4.815844750980395,48.1564552490196]}},{"type":"Feature","properties":{"nom":"Longeville-sur-Mogne","code":"10204","codeDepartement":"10","codeRegion":"44","codesPostaux":["10320"],"population":152},"geometry":{"type":"Point","coordinates":[4.06339031092437,48.1481472605042]}},{"type":"Feature","properties":{"nom":"Longpré-le-Sec","code":"10205","codeDepartement":"10","codeRegion":"44","codesPostaux":["10140"],"population":83},"geometry":{"type":"Point","coordinates":[4.532264985559567,48.188011707581246]}},{"type":"Feature","properties":{"nom":"Longsols","code":"10206","codeDepartement":"10","codeRegion":"44","codesPostaux":["10240"],"population":124},"geometry":{"type":"Point","coordinates":[4.286589925619833,48.42672320661158]}},{"type":"Feature","properties":{"nom":"Longueville-sur-Aube","code":"10207","codeDepartement":"10","codeRegion":"44","codesPostaux":["10170"],"population":124},"geometry":{"type":"Point","coordinates":[3.911703500000002,48.55819905737704]}},{"type":"Feature","properties":{"nom":"La Louptière-Thénard","code":"10208","codeDepartement":"10","codeRegion":"44","codesPostaux":["10400"],"population":291},"geometry":{"type":"Point","coordinates":[3.4404805541401258,48.38529201910827]}},{"type":"Feature","properties":{"nom":"Lusigny-sur-Barse","code":"10209","codeDepartement":"10","codeRegion":"44","codesPostaux":["10270"],"population":2131},"geometry":{"type":"Point","coordinates":[4.277217740932641,48.25812244352342]}},{"type":"Feature","properties":{"nom":"Luyères","code":"10210","codeDepartement":"10","codeRegion":"44","codesPostaux":["10150"],"population":451},"geometry":{"type":"Point","coordinates":[4.19540282722513,48.38122170157068]}},{"type":"Feature","properties":{"nom":"Macey","code":"10211","codeDepartement":"10","codeRegion":"44","codesPostaux":["10300"],"population":954},"geometry":{"type":"Point","coordinates":[3.916037273109247,48.30387237815124]}},{"type":"Feature","properties":{"nom":"Machy","code":"10212","codeDepartement":"10","codeRegion":"44","codesPostaux":["10320"],"population":113},"geometry":{"type":"Point","coordinates":[4.038635523255815,48.142954267441866]}},{"type":"Feature","properties":{"nom":"Magnant","code":"10213","codeDepartement":"10","codeRegion":"44","codesPostaux":["10110"],"population":164},"geometry":{"type":"Point","coordinates":[4.4170658650306756,48.171913223926396]}},{"type":"Feature","properties":{"nom":"Magnicourt","code":"10214","codeDepartement":"10","codeRegion":"44","codesPostaux":["10240"],"population":78},"geometry":{"type":"Point","coordinates":[4.3827867912457945,48.46312444107742]}},{"type":"Feature","properties":{"nom":"Magny-Fouchard","code":"10215","codeDepartement":"10","codeRegion":"44","codesPostaux":["10140"],"population":270},"geometry":{"type":"Point","coordinates":[4.546475603658538,48.23455379573169]}},{"type":"Feature","properties":{"nom":"Mailly-le-Camp","code":"10216","codeDepartement":"10","codeRegion":"44","codesPostaux":["10230"],"population":1546},"geometry":{"type":"Point","coordinates":[4.1952116549295715,48.67379561971833]}},{"type":"Feature","properties":{"nom":"Maison-des-Champs","code":"10217","codeDepartement":"10","codeRegion":"44","codesPostaux":["10140"],"population":33},"geometry":{"type":"Point","coordinates":[4.571950556213017,48.24446042011835]}},{"type":"Feature","properties":{"nom":"Maisons-lès-Chaource","code":"10218","codeDepartement":"10","codeRegion":"44","codesPostaux":["10210"],"population":163},"geometry":{"type":"Point","coordinates":[4.163025430555556,48.00587390740739]}},{"type":"Feature","properties":{"nom":"Maisons-lès-Soulaines","code":"10219","codeDepartement":"10","codeRegion":"44","codesPostaux":["10200"],"population":60},"geometry":{"type":"Point","coordinates":[4.782073704000001,48.293183015999965]}},{"type":"Feature","properties":{"nom":"Maizières-la-Grande-Paroisse","code":"10220","codeDepartement":"10","codeRegion":"44","codesPostaux":["10510"],"population":1503},"geometry":{"type":"Point","coordinates":[3.7892459664634135,48.51958227134147]}},{"type":"Feature","properties":{"nom":"Maizières-lès-Brienne","code":"10221","codeDepartement":"10","codeRegion":"44","codesPostaux":["10500"],"population":166},"geometry":{"type":"Point","coordinates":[4.605040014577259,48.43037902040818]}},{"type":"Feature","properties":{"nom":"Maraye-en-Othe","code":"10222","codeDepartement":"10","codeRegion":"44","codesPostaux":["10160"],"population":465},"geometry":{"type":"Point","coordinates":[3.8656378069908826,48.15921806686935]}},{"type":"Feature","properties":{"nom":"Marcilly-le-Hayer","code":"10223","codeDepartement":"10","codeRegion":"44","codesPostaux":["10290"],"population":720},"geometry":{"type":"Point","coordinates":[3.6454438785310725,48.32671338135594]}},{"type":"Feature","properties":{"nom":"Marigny-le-Châtel","code":"10224","codeDepartement":"10","codeRegion":"44","codesPostaux":["10350"],"population":1739},"geometry":{"type":"Point","coordinates":[3.72149663425926,48.404428000000046]}},{"type":"Feature","properties":{"nom":"Marnay-sur-Seine","code":"10225","codeDepartement":"10","codeRegion":"44","codesPostaux":["10400"],"population":224},"geometry":{"type":"Point","coordinates":[3.550636945812806,48.522938931034496]}},{"type":"Feature","properties":{"nom":"Marolles-lès-Bailly","code":"10226","codeDepartement":"10","codeRegion":"44","codesPostaux":["10110"],"population":103},"geometry":{"type":"Point","coordinates":[4.340623052631576,48.18891576923079]}},{"type":"Feature","properties":{"nom":"Marolles-sous-Lignières","code":"10227","codeDepartement":"10","codeRegion":"44","codesPostaux":["10130"],"population":332},"geometry":{"type":"Point","coordinates":[3.9158827197231827,47.95539145674743]}},{"type":"Feature","properties":{"nom":"Mathaux","code":"10228","codeDepartement":"10","codeRegion":"44","codesPostaux":["10500"],"population":200},"geometry":{"type":"Point","coordinates":[4.4614127361809075,48.35521524120602]}},{"type":"Feature","properties":{"nom":"Maupas","code":"10229","codeDepartement":"10","codeRegion":"44","codesPostaux":["10320"],"population":107},"geometry":{"type":"Point","coordinates":[4.082301113821139,48.142301780487806]}},{"type":"Feature","properties":{"nom":"Mergey","code":"10230","codeDepartement":"10","codeRegion":"44","codesPostaux":["10600"],"population":696},"geometry":{"type":"Point","coordinates":[4.021722105726873,48.38867912775331]}},{"type":"Feature","properties":{"nom":"Le Mériot","code":"10231","codeDepartement":"10","codeRegion":"44","codesPostaux":["10400"],"population":607},"geometry":{"type":"Point","coordinates":[3.4469190677083343,48.507501520833294]}},{"type":"Feature","properties":{"nom":"Merrey-sur-Arce","code":"10232","codeDepartement":"10","codeRegion":"44","codesPostaux":["10110"],"population":325},"geometry":{"type":"Point","coordinates":[4.400884287461771,48.092652204892985]}},{"type":"Feature","properties":{"nom":"Méry-sur-Seine","code":"10233","codeDepartement":"10","codeRegion":"44","codesPostaux":["10170"],"population":1520},"geometry":{"type":"Point","coordinates":[3.8903575542635678,48.49795419767441]}},{"type":"Feature","properties":{"nom":"Mesgrigny","code":"10234","codeDepartement":"10","codeRegion":"44","codesPostaux":["10170"],"population":301},"geometry":{"type":"Point","coordinates":[3.871607114285715,48.48388384761903]}},{"type":"Feature","properties":{"nom":"Mesnil-la-Comtesse","code":"10235","codeDepartement":"10","codeRegion":"44","codesPostaux":["10700"],"population":44},"geometry":{"type":"Point","coordinates":[4.199252931506848,48.49872747945206]}},{"type":"Feature","properties":{"nom":"Mesnil-Lettre","code":"10236","codeDepartement":"10","codeRegion":"44","codesPostaux":["10240"],"population":58},"geometry":{"type":"Point","coordinates":[4.261129160305343,48.464016580152666]}},{"type":"Feature","properties":{"nom":"Mesnil-Saint-Loup","code":"10237","codeDepartement":"10","codeRegion":"44","codesPostaux":["10190"],"population":605},"geometry":{"type":"Point","coordinates":[3.768949310526317,48.306866094736804]}},{"type":"Feature","properties":{"nom":"Mesnil-Saint-Père","code":"10238","codeDepartement":"10","codeRegion":"44","codesPostaux":["10140"],"population":480},"geometry":{"type":"Point","coordinates":[4.342442737179486,48.25336538461538]}},{"type":"Feature","properties":{"nom":"Mesnil-Sellières","code":"10239","codeDepartement":"10","codeRegion":"44","codesPostaux":["10220"],"population":590},"geometry":{"type":"Point","coordinates":[4.20650873076923,48.335308769230764]}},{"type":"Feature","properties":{"nom":"Messon","code":"10240","codeDepartement":"10","codeRegion":"44","codesPostaux":["10190"],"population":469},"geometry":{"type":"Point","coordinates":[3.9137600996168582,48.26127595402295]}},{"type":"Feature","properties":{"nom":"Metz-Robert","code":"10241","codeDepartement":"10","codeRegion":"44","codesPostaux":["10210"],"population":60},"geometry":{"type":"Point","coordinates":[4.098418521551725,48.072167543103426]}},{"type":"Feature","properties":{"nom":"Meurville","code":"10242","codeDepartement":"10","codeRegion":"44","codesPostaux":["10200"],"population":180},"geometry":{"type":"Point","coordinates":[4.616365212669685,48.20385558371043]}},{"type":"Feature","properties":{"nom":"Molins-sur-Aube","code":"10243","codeDepartement":"10","codeRegion":"44","codesPostaux":["10500"],"population":107},"geometry":{"type":"Point","coordinates":[4.385286895910781,48.43168624907059]}},{"type":"Feature","properties":{"nom":"Montaulin","code":"10245","codeDepartement":"10","codeRegion":"44","codesPostaux":["10270"],"population":809},"geometry":{"type":"Point","coordinates":[4.204829578199053,48.24930109004738]}},{"type":"Feature","properties":{"nom":"Montceaux-lès-Vaudes","code":"10246","codeDepartement":"10","codeRegion":"44","codesPostaux":["10260"],"population":252},"geometry":{"type":"Point","coordinates":[4.155762392097266,48.15359806990882]}},{"type":"Feature","properties":{"nom":"Montfey","code":"10247","codeDepartement":"10","codeRegion":"44","codesPostaux":["10130"],"population":139},"geometry":{"type":"Point","coordinates":[3.869224487179487,48.065445356125316]}},{"type":"Feature","properties":{"nom":"Montgueux","code":"10248","codeDepartement":"10","codeRegion":"44","codesPostaux":["10300"],"population":404},"geometry":{"type":"Point","coordinates":[3.9540017692307674,48.300041420512834]}},{"type":"Feature","properties":{"nom":"Montiéramey","code":"10249","codeDepartement":"10","codeRegion":"44","codesPostaux":["10270"],"population":404},"geometry":{"type":"Point","coordinates":[4.315042926045013,48.232808797427644]}},{"type":"Feature","properties":{"nom":"Montier-en-l'Isle","code":"10250","codeDepartement":"10","codeRegion":"44","codesPostaux":["10200"],"population":240},"geometry":{"type":"Point","coordinates":[4.681921920962199,48.27031064604813]}},{"type":"Feature","properties":{"nom":"Montigny-les-Monts","code":"10251","codeDepartement":"10","codeRegion":"44","codesPostaux":["10130"],"population":250},"geometry":{"type":"Point","coordinates":[3.964775187943263,48.09165203900708]}},{"type":"Feature","properties":{"nom":"Montmartin-le-Haut","code":"10252","codeDepartement":"10","codeRegion":"44","codesPostaux":["10140"],"population":49},"geometry":{"type":"Point","coordinates":[4.55066152631579,48.20972213157895]}},{"type":"Feature","properties":{"nom":"Montmorency-Beaufort","code":"10253","codeDepartement":"10","codeRegion":"44","codesPostaux":["10330"],"population":134},"geometry":{"type":"Point","coordinates":[4.560409850980391,48.48197169803921]}},{"type":"Feature","properties":{"nom":"Montpothier","code":"10254","codeDepartement":"10","codeRegion":"44","codesPostaux":["10400"],"population":335},"geometry":{"type":"Point","coordinates":[3.5112777358490574,48.58184077358491]}},{"type":"Feature","properties":{"nom":"Montreuil-sur-Barse","code":"10255","codeDepartement":"10","codeRegion":"44","codesPostaux":["10270"],"population":303},"geometry":{"type":"Point","coordinates":[4.293279222748815,48.21877370142184]}},{"type":"Feature","properties":{"nom":"Montsuzain","code":"10256","codeDepartement":"10","codeRegion":"44","codesPostaux":["10150"],"population":409},"geometry":{"type":"Point","coordinates":[4.132278407894738,48.440358127192944]}},{"type":"Feature","properties":{"nom":"Morembert","code":"10257","codeDepartement":"10","codeRegion":"44","codesPostaux":["10240"],"population":32},"geometry":{"type":"Point","coordinates":[4.326362819095478,48.50045269346733]}},{"type":"Feature","properties":{"nom":"Morvilliers","code":"10258","codeDepartement":"10","codeRegion":"44","codesPostaux":["10500"],"population":309},"geometry":{"type":"Point","coordinates":[4.639278559585493,48.38039337564767]}},{"type":"Feature","properties":{"nom":"La Motte-Tilly","code":"10259","codeDepartement":"10","codeRegion":"44","codesPostaux":["10400"],"population":382},"geometry":{"type":"Point","coordinates":[3.431089818181819,48.4828189307359]}},{"type":"Feature","properties":{"nom":"Moussey","code":"10260","codeDepartement":"10","codeRegion":"44","codesPostaux":["10800"],"population":636},"geometry":{"type":"Point","coordinates":[4.0975262442396305,48.21903342396311]}},{"type":"Feature","properties":{"nom":"Mussy-sur-Seine","code":"10261","codeDepartement":"10","codeRegion":"44","codesPostaux":["10250"],"population":1031},"geometry":{"type":"Point","coordinates":[4.491534404692084,47.98108019061584]}},{"type":"Feature","properties":{"nom":"Neuville-sur-Seine","code":"10262","codeDepartement":"10","codeRegion":"44","codesPostaux":["10250"],"population":448},"geometry":{"type":"Point","coordinates":[4.408507816901409,48.03845141971832]}},{"type":"Feature","properties":{"nom":"Neuville-sur-Vanne","code":"10263","codeDepartement":"10","codeRegion":"44","codesPostaux":["10190"],"population":419},"geometry":{"type":"Point","coordinates":[3.7748093473684206,48.24960961403508]}},{"type":"Feature","properties":{"nom":"Noé-les-Mallets","code":"10264","codeDepartement":"10","codeRegion":"44","codesPostaux":["10360"],"population":116},"geometry":{"type":"Point","coordinates":[4.5570516761904765,48.09937651904759]}},{"type":"Feature","properties":{"nom":"Les Noës-près-Troyes","code":"10265","codeDepartement":"10","codeRegion":"44","codesPostaux":["10420"],"population":3257},"geometry":{"type":"Point","coordinates":[4.043637827586207,48.30341255172415]}},{"type":"Feature","properties":{"nom":"Nogent-en-Othe","code":"10266","codeDepartement":"10","codeRegion":"44","codesPostaux":["10160"],"population":46},"geometry":{"type":"Point","coordinates":[3.7946548620689677,48.131041817733994]}},{"type":"Feature","properties":{"nom":"Nogent-sur-Aube","code":"10267","codeDepartement":"10","codeRegion":"44","codesPostaux":["10240"],"population":327},"geometry":{"type":"Point","coordinates":[4.311087512676057,48.491628343661965]}},{"type":"Feature","properties":{"nom":"Nogent-sur-Seine","code":"10268","codeDepartement":"10","codeRegion":"44","codesPostaux":["10400"],"population":5973},"geometry":{"type":"Point","coordinates":[3.500441429032258,48.50787499032256]}},{"type":"Feature","properties":{"nom":"Nozay","code":"10269","codeDepartement":"10","codeRegion":"44","codesPostaux":["10700"],"population":146},"geometry":{"type":"Point","coordinates":[4.098751414893618,48.50674062765959]}},{"type":"Feature","properties":{"nom":"Onjon","code":"10270","codeDepartement":"10","codeRegion":"44","codesPostaux":["10220"],"population":250},"geometry":{"type":"Point","coordinates":[4.281688509433961,48.397790479245266]}},{"type":"Feature","properties":{"nom":"Origny-le-Sec","code":"10271","codeDepartement":"10","codeRegion":"44","codesPostaux":["10510"],"population":610},"geometry":{"type":"Point","coordinates":[3.774077465517241,48.460454422413825]}},{"type":"Feature","properties":{"nom":"Ormes","code":"10272","codeDepartement":"10","codeRegion":"44","codesPostaux":["10700"],"population":187},"geometry":{"type":"Point","coordinates":[4.105615828571427,48.54996817857147]}},{"type":"Feature","properties":{"nom":"Ortillon","code":"10273","codeDepartement":"10","codeRegion":"44","codesPostaux":["10700"],"population":24},"geometry":{"type":"Point","coordinates":[4.239270584999995,48.50187136999998]}},{"type":"Feature","properties":{"nom":"Orvilliers-Saint-Julien","code":"10274","codeDepartement":"10","codeRegion":"44","codesPostaux":["10170"],"population":316},"geometry":{"type":"Point","coordinates":[3.8240196808510647,48.437869845744686]}},{"type":"Feature","properties":{"nom":"Ossey-les-Trois-Maisons","code":"10275","codeDepartement":"10","codeRegion":"44","codesPostaux":["10100"],"population":590},"geometry":{"type":"Point","coordinates":[3.733056924812031,48.43529560150374]}},{"type":"Feature","properties":{"nom":"Paisy-Cosdon","code":"10276","codeDepartement":"10","codeRegion":"44","codesPostaux":["10160"],"population":340},"geometry":{"type":"Point","coordinates":[3.6967046573426576,48.21628443356645]}},{"type":"Feature","properties":{"nom":"Pargues","code":"10278","codeDepartement":"10","codeRegion":"44","codesPostaux":["10210"],"population":135},"geometry":{"type":"Point","coordinates":[4.205019684754522,48.01368457622741]}},{"type":"Feature","properties":{"nom":"Pars-lès-Chavanges","code":"10279","codeDepartement":"10","codeRegion":"44","codesPostaux":["10330"],"population":66},"geometry":{"type":"Point","coordinates":[4.503568612903225,48.52214912096776]}},{"type":"Feature","properties":{"nom":"Pars-lès-Romilly","code":"10280","codeDepartement":"10","codeRegion":"44","codesPostaux":["10100"],"population":833},"geometry":{"type":"Point","coordinates":[3.7210754545454545,48.489722768939345]}},{"type":"Feature","properties":{"nom":"Le Pavillon-Sainte-Julie","code":"10281","codeDepartement":"10","codeRegion":"44","codesPostaux":["10350"],"population":294},"geometry":{"type":"Point","coordinates":[3.8988649316239337,48.36098158547005]}},{"type":"Feature","properties":{"nom":"Payns","code":"10282","codeDepartement":"10","codeRegion":"44","codesPostaux":["10600"],"population":1367},"geometry":{"type":"Point","coordinates":[3.965684876221497,48.38002442345274]}},{"type":"Feature","properties":{"nom":"Pel-et-Der","code":"10283","codeDepartement":"10","codeRegion":"44","codesPostaux":["10500"],"population":136},"geometry":{"type":"Point","coordinates":[4.413970828000002,48.389915095999996]}},{"type":"Feature","properties":{"nom":"Périgny-la-Rose","code":"10284","codeDepartement":"10","codeRegion":"44","codesPostaux":["10400"],"population":136},"geometry":{"type":"Point","coordinates":[3.6279124836065573,48.54405283606556]}},{"type":"Feature","properties":{"nom":"Perthes-lès-Brienne","code":"10285","codeDepartement":"10","codeRegion":"44","codesPostaux":["10500"],"population":81},"geometry":{"type":"Point","coordinates":[4.541492172839505,48.432440148148146]}},{"type":"Feature","properties":{"nom":"Petit-Mesnil","code":"10286","codeDepartement":"10","codeRegion":"44","codesPostaux":["10500"],"population":221},"geometry":{"type":"Point","coordinates":[4.631749102827762,48.33909327506428]}},{"type":"Feature","properties":{"nom":"Piney","code":"10287","codeDepartement":"10","codeRegion":"44","codesPostaux":["10220"],"population":1513},"geometry":{"type":"Point","coordinates":[4.376049034068134,48.3244246993988]}},{"type":"Feature","properties":{"nom":"Plaines-Saint-Lange","code":"10288","codeDepartement":"10","codeRegion":"44","codesPostaux":["10250"],"population":265},"geometry":{"type":"Point","coordinates":[4.479256078703707,47.99618449074074]}},{"type":"Feature","properties":{"nom":"Plancy-l'Abbaye","code":"10289","codeDepartement":"10","codeRegion":"44","codesPostaux":["10380"],"population":979},"geometry":{"type":"Point","coordinates":[3.9702600179487186,48.57746668461538]}},{"type":"Feature","properties":{"nom":"Planty","code":"10290","codeDepartement":"10","codeRegion":"44","codesPostaux":["10160"],"population":239},"geometry":{"type":"Point","coordinates":[3.6559057291666672,48.271688630208324]}},{"type":"Feature","properties":{"nom":"Plessis-Barbuise","code":"10291","codeDepartement":"10","codeRegion":"44","codesPostaux":["10400"],"population":196},"geometry":{"type":"Point","coordinates":[3.5807107985611495,48.5691081726619]}},{"type":"Feature","properties":{"nom":"Poivres","code":"10293","codeDepartement":"10","codeRegion":"44","codesPostaux":["10700"],"population":154},"geometry":{"type":"Point","coordinates":[4.270221007067137,48.67968217314489]}},{"type":"Feature","properties":{"nom":"Poligny","code":"10294","codeDepartement":"10","codeRegion":"44","codesPostaux":["10110"],"population":65},"geometry":{"type":"Point","coordinates":[4.34782575301205,48.175966307228926]}},{"type":"Feature","properties":{"nom":"Polisot","code":"10295","codeDepartement":"10","codeRegion":"44","codesPostaux":["10110"],"population":326},"geometry":{"type":"Point","coordinates":[4.355159367647059,48.074573680147076]}},{"type":"Feature","properties":{"nom":"Polisy","code":"10296","codeDepartement":"10","codeRegion":"44","codesPostaux":["10110"],"population":193},"geometry":{"type":"Point","coordinates":[4.366587015424164,48.05826769151672]}},{"type":"Feature","properties":{"nom":"Pont-Sainte-Marie","code":"10297","codeDepartement":"10","codeRegion":"44","codesPostaux":["10150"],"population":5070},"geometry":{"type":"Point","coordinates":[4.095120064935063,48.317496883116895]}},{"type":"Feature","properties":{"nom":"Pont-sur-Seine","code":"10298","codeDepartement":"10","codeRegion":"44","codesPostaux":["10400"],"population":1161},"geometry":{"type":"Point","coordinates":[3.604126820512821,48.51899990705132]}},{"type":"Feature","properties":{"nom":"Pouan-les-Vallées","code":"10299","codeDepartement":"10","codeRegion":"44","codesPostaux":["10700"],"population":549},"geometry":{"type":"Point","coordinates":[4.066352366666667,48.543128470000006]}},{"type":"Feature","properties":{"nom":"Pougy","code":"10300","codeDepartement":"10","codeRegion":"44","codesPostaux":["10240"],"population":292},"geometry":{"type":"Point","coordinates":[4.354198757763976,48.43813526708073]}},{"type":"Feature","properties":{"nom":"Pouy-sur-Vannes","code":"10301","codeDepartement":"10","codeRegion":"44","codesPostaux":["10290"],"population":148},"geometry":{"type":"Point","coordinates":[3.593277012875537,48.29689700429186]}},{"type":"Feature","properties":{"nom":"Praslin","code":"10302","codeDepartement":"10","codeRegion":"44","codesPostaux":["10210"],"population":86},"geometry":{"type":"Point","coordinates":[4.213315086956522,48.04254699209489]}},{"type":"Feature","properties":{"nom":"Précy-Notre-Dame","code":"10303","codeDepartement":"10","codeRegion":"44","codesPostaux":["10500"],"population":82},"geometry":{"type":"Point","coordinates":[4.438354270967742,48.404396838709665]}},{"type":"Feature","properties":{"nom":"Précy-Saint-Martin","code":"10304","codeDepartement":"10","codeRegion":"44","codesPostaux":["10500"],"population":188},"geometry":{"type":"Point","coordinates":[4.458846794642857,48.41323775892857]}},{"type":"Feature","properties":{"nom":"Prémierfait","code":"10305","codeDepartement":"10","codeRegion":"44","codesPostaux":["10170"],"population":90},"geometry":{"type":"Point","coordinates":[4.021051445783133,48.503651891566285]}},{"type":"Feature","properties":{"nom":"Proverville","code":"10306","codeDepartement":"10","codeRegion":"44","codesPostaux":["10200"],"population":239},"geometry":{"type":"Point","coordinates":[4.674478123711342,48.23281974226804]}},{"type":"Feature","properties":{"nom":"Prugny","code":"10307","codeDepartement":"10","codeRegion":"44","codesPostaux":["10190"],"population":378},"geometry":{"type":"Point","coordinates":[3.937969329411766,48.24622729411765]}},{"type":"Feature","properties":{"nom":"Prunay-Belleville","code":"10308","codeDepartement":"10","codeRegion":"44","codesPostaux":["10350"],"population":229},"geometry":{"type":"Point","coordinates":[3.776698654411765,48.36639777941178]}},{"type":"Feature","properties":{"nom":"Prusy","code":"10309","codeDepartement":"10","codeRegion":"44","codesPostaux":["10210"],"population":96},"geometry":{"type":"Point","coordinates":[4.050454791907514,47.974685132947954]}},{"type":"Feature","properties":{"nom":"Puits-et-Nuisement","code":"10310","codeDepartement":"10","codeRegion":"44","codesPostaux":["10140"],"population":211},"geometry":{"type":"Point","coordinates":[4.512404168627452,48.21584140392159]}},{"type":"Feature","properties":{"nom":"Racines","code":"10312","codeDepartement":"10","codeRegion":"44","codesPostaux":["10130"],"population":167},"geometry":{"type":"Point","coordinates":[3.8525691572164926,48.047673894329876]}},{"type":"Feature","properties":{"nom":"Radonvilliers","code":"10313","codeDepartement":"10","codeRegion":"44","codesPostaux":["10500"],"population":378},"geometry":{"type":"Point","coordinates":[4.475994431208053,48.33750223993289]}},{"type":"Feature","properties":{"nom":"Ramerupt","code":"10314","codeDepartement":"10","codeRegion":"44","codesPostaux":["10240"],"population":403},"geometry":{"type":"Point","coordinates":[4.303980063333331,48.51600846666666]}},{"type":"Feature","properties":{"nom":"Rances","code":"10315","codeDepartement":"10","codeRegion":"44","codesPostaux":["10500"],"population":44},"geometry":{"type":"Point","coordinates":[4.555711260606062,48.464632921212086]}},{"type":"Feature","properties":{"nom":"Rhèges","code":"10316","codeDepartement":"10","codeRegion":"44","codesPostaux":["10170"],"population":238},"geometry":{"type":"Point","coordinates":[3.9975052631578953,48.53460880451125]}},{"type":"Feature","properties":{"nom":"Les Riceys","code":"10317","codeDepartement":"10","codeRegion":"44","codesPostaux":["10340"],"population":1260},"geometry":{"type":"Point","coordinates":[4.366789181249997,47.98849309583332]}},{"type":"Feature","properties":{"nom":"Rigny-la-Nonneuse","code":"10318","codeDepartement":"10","codeRegion":"44","codesPostaux":["10290"],"population":170},"geometry":{"type":"Point","coordinates":[3.647694770491806,48.41309019672129]}},{"type":"Feature","properties":{"nom":"Rigny-le-Ferron","code":"10319","codeDepartement":"10","codeRegion":"44","codesPostaux":["10160"],"population":366},"geometry":{"type":"Point","coordinates":[3.629625837988829,48.20447190782124]}},{"type":"Feature","properties":{"nom":"Rilly-Sainte-Syre","code":"10320","codeDepartement":"10","codeRegion":"44","codesPostaux":["10280"],"population":231},"geometry":{"type":"Point","coordinates":[3.956296342105265,48.44578267894738]}},{"type":"Feature","properties":{"nom":"La Rivière-de-Corps","code":"10321","codeDepartement":"10","codeRegion":"44","codesPostaux":["10440"],"population":3253},"geometry":{"type":"Point","coordinates":[4.015853920454545,48.28104345454546]}},{"type":"Feature","properties":{"nom":"Romilly-sur-Seine","code":"10323","codeDepartement":"10","codeRegion":"44","codesPostaux":["10100"],"population":14459},"geometry":{"type":"Point","coordinates":[3.711469995502251,48.52152666116941]}},{"type":"Feature","properties":{"nom":"Roncenay","code":"10324","codeDepartement":"10","codeRegion":"44","codesPostaux":["10320"],"population":158},"geometry":{"type":"Point","coordinates":[4.047463791304348,48.19851276521738]}},{"type":"Feature","properties":{"nom":"Rosières-près-Troyes","code":"10325","codeDepartement":"10","codeRegion":"44","codesPostaux":["10430"],"population":4066},"geometry":{"type":"Point","coordinates":[4.0683223296089395,48.26067368156425]}},{"type":"Feature","properties":{"nom":"Rosnay-l'Hôpital","code":"10326","codeDepartement":"10","codeRegion":"44","codesPostaux":["10500"],"population":197},"geometry":{"type":"Point","coordinates":[4.50154330252101,48.457465264705895]}},{"type":"Feature","properties":{"nom":"La Rothière","code":"10327","codeDepartement":"10","codeRegion":"44","codesPostaux":["10500"],"population":109},"geometry":{"type":"Point","coordinates":[4.595800429104475,48.33523954104476]}},{"type":"Feature","properties":{"nom":"Rouilly-Sacey","code":"10328","codeDepartement":"10","codeRegion":"44","codesPostaux":["10220"],"population":386},"geometry":{"type":"Point","coordinates":[4.279564535460994,48.34641771631202]}},{"type":"Feature","properties":{"nom":"Rouilly-Saint-Loup","code":"10329","codeDepartement":"10","codeRegion":"44","codesPostaux":["10800"],"population":517},"geometry":{"type":"Point","coordinates":[4.1485354334471,48.267611822525595]}},{"type":"Feature","properties":{"nom":"Rouvres-les-Vignes","code":"10330","codeDepartement":"10","codeRegion":"44","codesPostaux":["10200"],"population":106},"geometry":{"type":"Point","coordinates":[4.827165045454544,48.23661288636362]}},{"type":"Feature","properties":{"nom":"Rumilly-lès-Vaudes","code":"10331","codeDepartement":"10","codeRegion":"44","codesPostaux":["10260"],"population":527},"geometry":{"type":"Point","coordinates":[4.199705893939397,48.12614342424244]}},{"type":"Feature","properties":{"nom":"Ruvigny","code":"10332","codeDepartement":"10","codeRegion":"44","codesPostaux":["10410"],"population":493},"geometry":{"type":"Point","coordinates":[4.188436865030671,48.26931592638036]}},{"type":"Feature","properties":{"nom":"Saint-André-les-Vergers","code":"10333","codeDepartement":"10","codeRegion":"44","codesPostaux":["10120"],"population":12116},"geometry":{"type":"Point","coordinates":[4.051399304635758,48.280704410596016]}},{"type":"Feature","properties":{"nom":"Saint-Aubin","code":"10334","codeDepartement":"10","codeRegion":"44","codesPostaux":["10400"],"population":587},"geometry":{"type":"Point","coordinates":[3.5549157342657334,48.483055069930074]}},{"type":"Feature","properties":{"nom":"Saint-Benoist-sur-Vanne","code":"10335","codeDepartement":"10","codeRegion":"44","codesPostaux":["10160"],"population":235},"geometry":{"type":"Point","coordinates":[3.6697913925233663,48.23184517289718]}},{"type":"Feature","properties":{"nom":"Saint-Benoît-sur-Seine","code":"10336","codeDepartement":"10","codeRegion":"44","codesPostaux":["10180"],"population":406},"geometry":{"type":"Point","coordinates":[4.0367295265700465,48.37037951207732]}},{"type":"Feature","properties":{"nom":"Saint-Christophe-Dodinicourt","code":"10337","codeDepartement":"10","codeRegion":"44","codesPostaux":["10500"],"population":34},"geometry":{"type":"Point","coordinates":[4.471202331288345,48.435830220858904]}},{"type":"Feature","properties":{"nom":"Saint-Étienne-sous-Barbuise","code":"10338","codeDepartement":"10","codeRegion":"44","codesPostaux":["10700"],"population":161},"geometry":{"type":"Point","coordinates":[4.115715843478259,48.49293473043478]}},{"type":"Feature","properties":{"nom":"Saint-Flavy","code":"10339","codeDepartement":"10","codeRegion":"44","codesPostaux":["10350"],"population":277},"geometry":{"type":"Point","coordinates":[3.772246906040271,48.40333089932886]}},{"type":"Feature","properties":{"nom":"Saint-Germain","code":"10340","codeDepartement":"10","codeRegion":"44","codesPostaux":["10120"],"population":2318},"geometry":{"type":"Point","coordinates":[4.01358835078534,48.25209639267015]}},{"type":"Feature","properties":{"nom":"Saint-Hilaire-sous-Romilly","code":"10341","codeDepartement":"10","codeRegion":"44","codesPostaux":["10100"],"population":342},"geometry":{"type":"Point","coordinates":[3.6570217842778785,48.503729352833595]}},{"type":"Feature","properties":{"nom":"Saint-Jean-de-Bonneval","code":"10342","codeDepartement":"10","codeRegion":"44","codesPostaux":["10320"],"population":391},"geometry":{"type":"Point","coordinates":[4.054851257309941,48.169534040935645]}},{"type":"Feature","properties":{"nom":"Saint-Julien-les-Villas","code":"10343","codeDepartement":"10","codeRegion":"44","codesPostaux":["10800"],"population":6820},"geometry":{"type":"Point","coordinates":[4.105625616504853,48.27485701456308]}},{"type":"Feature","properties":{"nom":"Saint-Léger-près-Troyes","code":"10344","codeDepartement":"10","codeRegion":"44","codesPostaux":["10800"],"population":869},"geometry":{"type":"Point","coordinates":[4.072333342519682,48.24089018503933]}},{"type":"Feature","properties":{"nom":"Saint-Léger-sous-Brienne","code":"10345","codeDepartement":"10","codeRegion":"44","codesPostaux":["10500"],"population":387},"geometry":{"type":"Point","coordinates":[4.496276172413793,48.40807885893418]}},{"type":"Feature","properties":{"nom":"Saint-Léger-sous-Margerie","code":"10346","codeDepartement":"10","codeRegion":"44","codesPostaux":["10330"],"population":60},"geometry":{"type":"Point","coordinates":[4.48762072815534,48.5323289223301]}},{"type":"Feature","properties":{"nom":"Saint-Loup-de-Buffigny","code":"10347","codeDepartement":"10","codeRegion":"44","codesPostaux":["10100"],"population":214},"geometry":{"type":"Point","coordinates":[3.626311544041453,48.441896233160605]}},{"type":"Feature","properties":{"nom":"Saint-Lupien","code":"10348","codeDepartement":"10","codeRegion":"44","codesPostaux":["10350"],"population":239},"geometry":{"type":"Point","coordinates":[3.6994605495495496,48.36005696396396]}},{"type":"Feature","properties":{"nom":"Saint-Lyé","code":"10349","codeDepartement":"10","codeRegion":"44","codesPostaux":["10180"],"population":2940},"geometry":{"type":"Point","coordinates":[3.9830009396551707,48.34721810919537]}},{"type":"Feature","properties":{"nom":"Saint-Mards-en-Othe","code":"10350","codeDepartement":"10","codeRegion":"44","codesPostaux":["10160"],"population":641},"geometry":{"type":"Point","coordinates":[3.795622154394305,48.1627200831354]}},{"type":"Feature","properties":{"nom":"Saint-Martin-de-Bossenay","code":"10351","codeDepartement":"10","codeRegion":"44","codesPostaux":["10100"],"population":366},"geometry":{"type":"Point","coordinates":[3.6797342188841227,48.443804399141634]}},{"type":"Feature","properties":{"nom":"Sainte-Maure","code":"10352","codeDepartement":"10","codeRegion":"44","codesPostaux":["10150"],"population":1620},"geometry":{"type":"Point","coordinates":[4.064742840236689,48.35456693195262]}},{"type":"Feature","properties":{"nom":"Saint-Mesmin","code":"10353","codeDepartement":"10","codeRegion":"44","codesPostaux":["10280"],"population":822},"geometry":{"type":"Point","coordinates":[3.9072703150684966,48.4408547431507]}},{"type":"Feature","properties":{"nom":"Saint-Nabord-sur-Aube","code":"10354","codeDepartement":"10","codeRegion":"44","codesPostaux":["10700"],"population":139},"geometry":{"type":"Point","coordinates":[4.208129134502922,48.517065532163755]}},{"type":"Feature","properties":{"nom":"Saint-Nicolas-la-Chapelle","code":"10355","codeDepartement":"10","codeRegion":"44","codesPostaux":["10400"],"population":63},"geometry":{"type":"Point","coordinates":[3.482261354978354,48.51894165367963]}},{"type":"Feature","properties":{"nom":"Saint-Oulph","code":"10356","codeDepartement":"10","codeRegion":"44","codesPostaux":["10170"],"population":281},"geometry":{"type":"Point","coordinates":[3.860489622009567,48.517903301435375]}},{"type":"Feature","properties":{"nom":"Saint-Parres-aux-Tertres","code":"10357","codeDepartement":"10","codeRegion":"44","codesPostaux":["10410"],"population":3116},"geometry":{"type":"Point","coordinates":[4.123312608465607,48.291605666666676]}},{"type":"Feature","properties":{"nom":"Saint-Parres-lès-Vaudes","code":"10358","codeDepartement":"10","codeRegion":"44","codesPostaux":["10260"],"population":1010},"geometry":{"type":"Point","coordinates":[4.220127861538461,48.17355419230769]}},{"type":"Feature","properties":{"nom":"Saint-Phal","code":"10359","codeDepartement":"10","codeRegion":"44","codesPostaux":["10130"],"population":525},"geometry":{"type":"Point","coordinates":[3.996180033407576,48.11099741425393]}},{"type":"Feature","properties":{"nom":"Saint-Pouange","code":"10360","codeDepartement":"10","codeRegion":"44","codesPostaux":["10120"],"population":906},"geometry":{"type":"Point","coordinates":[4.044700005128205,48.2280918820513]}},{"type":"Feature","properties":{"nom":"Saint-Remy-sous-Barbuise","code":"10361","codeDepartement":"10","codeRegion":"44","codesPostaux":["10700"],"population":230},"geometry":{"type":"Point","coordinates":[4.127639075630254,48.47916346218487]}},{"type":"Feature","properties":{"nom":"Sainte-Savine","code":"10362","codeDepartement":"10","codeRegion":"44","codesPostaux":["10300"],"population":10301},"geometry":{"type":"Point","coordinates":[4.033127885906042,48.294886563758375]}},{"type":"Feature","properties":{"nom":"Saint-Thibault","code":"10363","codeDepartement":"10","codeRegion":"44","codesPostaux":["10800"],"population":550},"geometry":{"type":"Point","coordinates":[4.14710786716792,48.20332181704264]}},{"type":"Feature","properties":{"nom":"Saint-Usage","code":"10364","codeDepartement":"10","codeRegion":"44","codesPostaux":["10360"],"population":77},"geometry":{"type":"Point","coordinates":[4.64032496140351,48.096934849122796]}},{"type":"Feature","properties":{"nom":"Salon","code":"10365","codeDepartement":"10","codeRegion":"44","codesPostaux":["10700"],"population":122},"geometry":{"type":"Point","coordinates":[4.017842388888889,48.639884030302994]}},{"type":"Feature","properties":{"nom":"Saulcy","code":"10366","codeDepartement":"10","codeRegion":"44","codesPostaux":["10200"],"population":71},"geometry":{"type":"Point","coordinates":[4.834410586956521,48.27850854037266]}},{"type":"Feature","properties":{"nom":"La Saulsotte","code":"10367","codeDepartement":"10","codeRegion":"44","codesPostaux":["10400"],"population":698},"geometry":{"type":"Point","coordinates":[3.5106468143459906,48.53630794092826]}},{"type":"Feature","properties":{"nom":"Savières","code":"10368","codeDepartement":"10","codeRegion":"44","codesPostaux":["10600"],"population":1008},"geometry":{"type":"Point","coordinates":[3.9450772241813583,48.4136584105793]}},{"type":"Feature","properties":{"nom":"Semoine","code":"10369","codeDepartement":"10","codeRegion":"44","codesPostaux":["10700"],"population":202},"geometry":{"type":"Point","coordinates":[4.085504173913043,48.67290891304346]}},{"type":"Feature","properties":{"nom":"Soligny-les-Étangs","code":"10370","codeDepartement":"10","codeRegion":"44","codesPostaux":["10400"],"population":239},"geometry":{"type":"Point","coordinates":[3.5087827727272742,48.40533456818183]}},{"type":"Feature","properties":{"nom":"Sommeval","code":"10371","codeDepartement":"10","codeRegion":"44","codesPostaux":["10320"],"population":315},"geometry":{"type":"Point","coordinates":[3.9564859489795916,48.16109690816328]}},{"type":"Feature","properties":{"nom":"Soulaines-Dhuys","code":"10372","codeDepartement":"10","codeRegion":"44","codesPostaux":["10200"],"population":415},"geometry":{"type":"Point","coordinates":[4.706334931654681,48.381969438848905]}},{"type":"Feature","properties":{"nom":"Souligny","code":"10373","codeDepartement":"10","codeRegion":"44","codesPostaux":["10320"],"population":413},"geometry":{"type":"Point","coordinates":[3.978410657754008,48.20339780748664]}},{"type":"Feature","properties":{"nom":"Spoy","code":"10374","codeDepartement":"10","codeRegion":"44","codesPostaux":["10200"],"population":173},"geometry":{"type":"Point","coordinates":[4.615416670103095,48.226763993127136]}},{"type":"Feature","properties":{"nom":"Thennelières","code":"10375","codeDepartement":"10","codeRegion":"44","codesPostaux":["10410"],"population":341},"geometry":{"type":"Point","coordinates":[4.189112312000001,48.289328568000016]}},{"type":"Feature","properties":{"nom":"Thieffrain","code":"10376","codeDepartement":"10","codeRegion":"44","codesPostaux":["10140"],"population":154},"geometry":{"type":"Point","coordinates":[4.436890016129032,48.1991148790322]}},{"type":"Feature","properties":{"nom":"Thil","code":"10377","codeDepartement":"10","codeRegion":"44","codesPostaux":["10200"],"population":123},"geometry":{"type":"Point","coordinates":[4.7900167757575725,48.34305475454546]}},{"type":"Feature","properties":{"nom":"Thors","code":"10378","codeDepartement":"10","codeRegion":"44","codesPostaux":["10200"],"population":73},"geometry":{"type":"Point","coordinates":[4.809958142857145,48.30622999428571]}},{"type":"Feature","properties":{"nom":"Torcy-le-Grand","code":"10379","codeDepartement":"10","codeRegion":"44","codesPostaux":["10700"],"population":445},"geometry":{"type":"Point","coordinates":[4.168390852760736,48.52545879141105]}},{"type":"Feature","properties":{"nom":"Torcy-le-Petit","code":"10380","codeDepartement":"10","codeRegion":"44","codesPostaux":["10700"],"population":81},"geometry":{"type":"Point","coordinates":[4.1929985511811045,48.53102302362206]}},{"type":"Feature","properties":{"nom":"Torvilliers","code":"10381","codeDepartement":"10","codeRegion":"44","codesPostaux":["10440"],"population":960},"geometry":{"type":"Point","coordinates":[3.969591864406782,48.27718255932202]}},{"type":"Feature","properties":{"nom":"Traînel","code":"10382","codeDepartement":"10","codeRegion":"44","codesPostaux":["10400"],"population":1073},"geometry":{"type":"Point","coordinates":[3.448173342105265,48.40969241118418]}},{"type":"Feature","properties":{"nom":"Trancault","code":"10383","codeDepartement":"10","codeRegion":"44","codesPostaux":["10290"],"population":184},"geometry":{"type":"Point","coordinates":[3.534946766519825,48.37461982378855]}},{"type":"Feature","properties":{"nom":"Trannes","code":"10384","codeDepartement":"10","codeRegion":"44","codesPostaux":["10140"],"population":245},"geometry":{"type":"Point","coordinates":[4.5993577428571415,48.30641062500001]}},{"type":"Feature","properties":{"nom":"Trouans","code":"10386","codeDepartement":"10","codeRegion":"44","codesPostaux":["10700"],"population":232},"geometry":{"type":"Point","coordinates":[4.247082728658536,48.636313634146326]}},{"type":"Feature","properties":{"nom":"Troyes","code":"10387","codeDepartement":"10","codeRegion":"44","codesPostaux":["10000"],"population":60640},"geometry":{"type":"Point","coordinates":[4.082004568396228,48.298089134433944]}},{"type":"Feature","properties":{"nom":"Turgy","code":"10388","codeDepartement":"10","codeRegion":"44","codesPostaux":["10210"],"population":45},"geometry":{"type":"Point","coordinates":[4.05242367857143,48.02633776190477]}},{"type":"Feature","properties":{"nom":"Unienville","code":"10389","codeDepartement":"10","codeRegion":"44","codesPostaux":["10140"],"population":129},"geometry":{"type":"Point","coordinates":[4.547733689655173,48.31681593793104]}},{"type":"Feature","properties":{"nom":"Urville","code":"10390","codeDepartement":"10","codeRegion":"44","codesPostaux":["10200"],"population":136},"geometry":{"type":"Point","coordinates":[4.671017663299662,48.17096510437712]}},{"type":"Feature","properties":{"nom":"Vailly","code":"10391","codeDepartement":"10","codeRegion":"44","codesPostaux":["10150"],"population":291},"geometry":{"type":"Point","coordinates":[4.117745171428574,48.36714590285711]}},{"type":"Feature","properties":{"nom":"Vallant-Saint-Georges","code":"10392","codeDepartement":"10","codeRegion":"44","codesPostaux":["10170"],"population":376},"geometry":{"type":"Point","coordinates":[3.9001766236162374,48.46386780073799]}},{"type":"Feature","properties":{"nom":"Vallentigny","code":"10393","codeDepartement":"10","codeRegion":"44","codesPostaux":["10500"],"population":185},"geometry":{"type":"Point","coordinates":[4.615431356807513,48.44394621439747]}},{"type":"Feature","properties":{"nom":"Vallières","code":"10394","codeDepartement":"10","codeRegion":"44","codesPostaux":["10210"],"population":144},"geometry":{"type":"Point","coordinates":[4.062353169916434,48.00149537325906]}},{"type":"Feature","properties":{"nom":"Vanlay","code":"10395","codeDepartement":"10","codeRegion":"44","codesPostaux":["10210"],"population":308},"geometry":{"type":"Point","coordinates":[4.024772007751936,48.021511505813926]}},{"type":"Feature","properties":{"nom":"Vauchassis","code":"10396","codeDepartement":"10","codeRegion":"44","codesPostaux":["10190"],"population":504},"geometry":{"type":"Point","coordinates":[3.9205126551724128,48.21019383836203]}},{"type":"Feature","properties":{"nom":"Vauchonvilliers","code":"10397","codeDepartement":"10","codeRegion":"44","codesPostaux":["10140"],"population":159},"geometry":{"type":"Point","coordinates":[4.535427801498134,48.26785912734082]}},{"type":"Feature","properties":{"nom":"Vaucogne","code":"10398","codeDepartement":"10","codeRegion":"44","codesPostaux":["10240"],"population":74},"geometry":{"type":"Point","coordinates":[4.3412059548022635,48.53159928813559]}},{"type":"Feature","properties":{"nom":"Vaudes","code":"10399","codeDepartement":"10","codeRegion":"44","codesPostaux":["10260"],"population":720},"geometry":{"type":"Point","coordinates":[4.181523022900763,48.17883072519087]}},{"type":"Feature","properties":{"nom":"Vaupoisson","code":"10400","codeDepartement":"10","codeRegion":"44","codesPostaux":["10700"],"population":123},"geometry":{"type":"Point","coordinates":[4.221499981735159,48.510273228310474]}},{"type":"Feature","properties":{"nom":"Vendeuvre-sur-Barse","code":"10401","codeDepartement":"10","codeRegion":"44","codesPostaux":["10140"],"population":2334},"geometry":{"type":"Point","coordinates":[4.4569779248,48.2416942336]}},{"type":"Feature","properties":{"nom":"La Vendue-Mignot","code":"10402","codeDepartement":"10","codeRegion":"44","codesPostaux":["10800"],"population":253},"geometry":{"type":"Point","coordinates":[4.103960675471695,48.15646523396227]}},{"type":"Feature","properties":{"nom":"Vernonvilliers","code":"10403","codeDepartement":"10","codeRegion":"44","codesPostaux":["10200"],"population":62},"geometry":{"type":"Point","coordinates":[4.679852496774193,48.311251354838696]}},{"type":"Feature","properties":{"nom":"Verpillières-sur-Ource","code":"10404","codeDepartement":"10","codeRegion":"44","codesPostaux":["10360"],"population":111},"geometry":{"type":"Point","coordinates":[4.586478705357142,48.04449182142854]}},{"type":"Feature","properties":{"nom":"Verricourt","code":"10405","codeDepartement":"10","codeRegion":"44","codesPostaux":["10240"],"population":53},"geometry":{"type":"Point","coordinates":[4.33698457522124,48.45366905309735]}},{"type":"Feature","properties":{"nom":"Verrières","code":"10406","codeDepartement":"10","codeRegion":"44","codesPostaux":["10390"],"population":1881},"geometry":{"type":"Point","coordinates":[4.150887881188115,48.2308721534654]}},{"type":"Feature","properties":{"nom":"Viâpres-le-Petit","code":"10408","codeDepartement":"10","codeRegion":"44","codesPostaux":["10380"],"population":121},"geometry":{"type":"Point","coordinates":[4.048432788043479,48.57320923913042]}},{"type":"Feature","properties":{"nom":"Villacerf","code":"10409","codeDepartement":"10","codeRegion":"44","codesPostaux":["10600"],"population":584},"geometry":{"type":"Point","coordinates":[3.991373673170732,48.40613906341465]}},{"type":"Feature","properties":{"nom":"Villadin","code":"10410","codeDepartement":"10","codeRegion":"44","codesPostaux":["10290"],"population":115},"geometry":{"type":"Point","coordinates":[3.6855239999999974,48.31124891517858]}},{"type":"Feature","properties":{"nom":"La Ville-aux-Bois","code":"10411","codeDepartement":"10","codeRegion":"44","codesPostaux":["10500"],"population":27},"geometry":{"type":"Point","coordinates":[4.683073422459892,48.40436748663099]}},{"type":"Feature","properties":{"nom":"Villechétif","code":"10412","codeDepartement":"10","codeRegion":"44","codesPostaux":["10410"],"population":925},"geometry":{"type":"Point","coordinates":[4.152202354166667,48.314935736111096]}},{"type":"Feature","properties":{"nom":"Villeloup","code":"10414","codeDepartement":"10","codeRegion":"44","codesPostaux":["10350"],"population":120},"geometry":{"type":"Point","coordinates":[3.867970386363637,48.35233957386361]}},{"type":"Feature","properties":{"nom":"Villemereuil","code":"10416","codeDepartement":"10","codeRegion":"44","codesPostaux":["10800"],"population":244},"geometry":{"type":"Point","coordinates":[4.0824670538461545,48.20084026538461]}},{"type":"Feature","properties":{"nom":"Villemoiron-en-Othe","code":"10417","codeDepartement":"10","codeRegion":"44","codesPostaux":["10160"],"population":202},"geometry":{"type":"Point","coordinates":[3.7987071259842526,48.19718723228351]}},{"type":"Feature","properties":{"nom":"Villemorien","code":"10418","codeDepartement":"10","codeRegion":"44","codesPostaux":["10110"],"population":208},"geometry":{"type":"Point","coordinates":[4.295612344743277,48.08033704400975]}},{"type":"Feature","properties":{"nom":"Villemoyenne","code":"10419","codeDepartement":"10","codeRegion":"44","codesPostaux":["10260"],"population":775},"geometry":{"type":"Point","coordinates":[4.246702739926739,48.190556589743636]}},{"type":"Feature","properties":{"nom":"Villenauxe-la-Grande","code":"10420","codeDepartement":"10","codeRegion":"44","codesPostaux":["10370"],"population":2724},"geometry":{"type":"Point","coordinates":[3.553995446902657,48.60441357964604]}},{"type":"Feature","properties":{"nom":"La Villeneuve-au-Châtelot","code":"10421","codeDepartement":"10","codeRegion":"44","codesPostaux":["10400"],"population":145},"geometry":{"type":"Point","coordinates":[3.6074289338842966,48.54451652892562]}},{"type":"Feature","properties":{"nom":"Villeneuve-au-Chemin","code":"10422","codeDepartement":"10","codeRegion":"44","codesPostaux":["10130"],"population":186},"geometry":{"type":"Point","coordinates":[3.8420371250000014,48.089156486111094]}},{"type":"Feature","properties":{"nom":"La Villeneuve-au-Chêne","code":"10423","codeDepartement":"10","codeRegion":"44","codesPostaux":["10140"],"population":428},"geometry":{"type":"Point","coordinates":[4.392108300917435,48.24806272293579]}},{"type":"Feature","properties":{"nom":"Villeret","code":"10424","codeDepartement":"10","codeRegion":"44","codesPostaux":["10330"],"population":64},"geometry":{"type":"Point","coordinates":[4.588783209580838,48.47872303592814]}},{"type":"Feature","properties":{"nom":"Villery","code":"10425","codeDepartement":"10","codeRegion":"44","codesPostaux":["10320"],"population":276},"geometry":{"type":"Point","coordinates":[4.01508753097345,48.1733906814159]}},{"type":"Feature","properties":{"nom":"Ville-sous-la-Ferté","code":"10426","codeDepartement":"10","codeRegion":"44","codesPostaux":["10310"],"population":1070},"geometry":{"type":"Point","coordinates":[4.783026922049001,48.14366415367484]}},{"type":"Feature","properties":{"nom":"Ville-sur-Arce","code":"10427","codeDepartement":"10","codeRegion":"44","codesPostaux":["10110"],"population":215},"geometry":{"type":"Point","coordinates":[4.44685405944056,48.10814489160843]}},{"type":"Feature","properties":{"nom":"Ville-sur-Terre","code":"10428","codeDepartement":"10","codeRegion":"44","codesPostaux":["10200"],"population":106},"geometry":{"type":"Point","coordinates":[4.731114798387097,48.33764328763443]}},{"type":"Feature","properties":{"nom":"Villette-sur-Aube","code":"10429","codeDepartement":"10","codeRegion":"44","codesPostaux":["10700"],"population":261},"geometry":{"type":"Point","coordinates":[4.106285109004738,48.5359303649289]}},{"type":"Feature","properties":{"nom":"Villiers-Herbisse","code":"10430","codeDepartement":"10","codeRegion":"44","codesPostaux":["10700"],"population":87},"geometry":{"type":"Point","coordinates":[4.114794758064517,48.64582472580647]}},{"type":"Feature","properties":{"nom":"Villiers-le-Bois","code":"10431","codeDepartement":"10","codeRegion":"44","codesPostaux":["10210"],"population":93},"geometry":{"type":"Point","coordinates":[4.190424857142858,47.95696023949588]}},{"type":"Feature","properties":{"nom":"Villiers-sous-Praslin","code":"10432","codeDepartement":"10","codeRegion":"44","codesPostaux":["10210"],"population":71},"geometry":{"type":"Point","coordinates":[4.249982222222224,48.06131773737375]}},{"type":"Feature","properties":{"nom":"Villy-en-Trodes","code":"10433","codeDepartement":"10","codeRegion":"44","codesPostaux":["10140"],"population":243},"geometry":{"type":"Point","coordinates":[4.390448672877848,48.201945275362256]}},{"type":"Feature","properties":{"nom":"Villy-le-Bois","code":"10434","codeDepartement":"10","codeRegion":"44","codesPostaux":["10800"],"population":56},"geometry":{"type":"Point","coordinates":[4.091592084656082,48.168396216931235]}},{"type":"Feature","properties":{"nom":"Villy-le-Maréchal","code":"10435","codeDepartement":"10","codeRegion":"44","codesPostaux":["10800"],"population":189},"geometry":{"type":"Point","coordinates":[4.0740374363636365,48.1907107090909]}},{"type":"Feature","properties":{"nom":"Vinets","code":"10436","codeDepartement":"10","codeRegion":"44","codesPostaux":["10700"],"population":171},"geometry":{"type":"Point","coordinates":[4.22898855971897,48.5391729882904]}},{"type":"Feature","properties":{"nom":"Virey-sous-Bar","code":"10437","codeDepartement":"10","codeRegion":"44","codesPostaux":["10260"],"population":629},"geometry":{"type":"Point","coordinates":[4.310662173708922,48.133250140845064]}},{"type":"Feature","properties":{"nom":"Vitry-le-Croisé","code":"10438","codeDepartement":"10","codeRegion":"44","codesPostaux":["10110"],"population":240},"geometry":{"type":"Point","coordinates":[4.574712415770608,48.143905964157746]}},{"type":"Feature","properties":{"nom":"Viviers-sur-Artaut","code":"10439","codeDepartement":"10","codeRegion":"44","codesPostaux":["10110"],"population":125},"geometry":{"type":"Point","coordinates":[4.499150604761903,48.099066052380934]}},{"type":"Feature","properties":{"nom":"Voigny","code":"10440","codeDepartement":"10","codeRegion":"44","codesPostaux":["10200"],"population":164},"geometry":{"type":"Point","coordinates":[4.766856123529412,48.236641052941195]}},{"type":"Feature","properties":{"nom":"Vosnon","code":"10441","codeDepartement":"10","codeRegion":"44","codesPostaux":["10130"],"population":231},"geometry":{"type":"Point","coordinates":[3.836483559808611,48.10894477511962]}},