{"type":"FeatureCollection","features":[{"type":"Feature","properties":{"nom":"Achères","code":"18001","codeDepartement":"18","codeRegion":"24","codesPostaux":["18250"],"population":379},"geometry":{"type":"Point","coordinates":[2.4563656012269934,47.28669661349692]}},{"type":"Feature","properties":{"nom":"Ainay-le-Vieil","code":"18002","codeDepartement":"18","codeRegion":"24","codesPostaux":["18200"],"population":183},"geometry":{"type":"Point","coordinates":[2.5451303196125905,46.656506106537556]}},{"type":"Feature","properties":{"nom":"Les Aix-d'Angillon","code":"18003","codeDepartement":"18","codeRegion":"24","codesPostaux":["18220"],"population":1926},"geometry":{"type":"Point","coordinates":[2.572641666666667,47.19415572522524]}},{"type":"Feature","properties":{"nom":"Allogny","code":"18004","codeDepartement":"18","codeRegion":"24","codesPostaux":["18110"],"population":1020},"geometry":{"type":"Point","coordinates":[2.293394201646092,47.23200339094647]}},{"type":"Feature","properties":{"nom":"Allouis","code":"18005","codeDepartement":"18","codeRegion":"24","codesPostaux":["18500"],"population":1074},"geometry":{"type":"Point","coordinates":[2.237478390581714,47.17312370637119]}},{"type":"Feature","properties":{"nom":"Annoix","code":"18006","codeDepartement":"18","codeRegion":"24","codesPostaux":["18340"],"population":231},"geometry":{"type":"Point","coordinates":[2.5339498037974684,46.967938569620266]}},{"type":"Feature","properties":{"nom":"Apremont-sur-Allier","code":"18007","codeDepartement":"18","codeRegion":"24","codesPostaux":["18150"],"population":71},"geometry":{"type":"Point","coordinates":[3.018169790067719,46.91482629119639]}},{"type":"Feature","properties":{"nom":"Arçay","code":"18008","codeDepartement":"18","codeRegion":"24","codesPostaux":["18340"],"population":515},"geometry":{"type":"Point","coordinates":[2.3352525538461557,46.962202169230764]}},{"type":"Feature","properties":{"nom":"Arcomps","code":"18009","codeDepartement":"18","codeRegion":"24","codesPostaux":["18200"],"population":317},"geometry":{"type":"Point","coordinates":[2.437150663900416,46.680978045643144]}},{"type":"Feature","properties":{"nom":"Ardenais","code":"18010","codeDepartement":"18","codeRegion":"24","codesPostaux":["18170"],"population":204},"geometry":{"type":"Point","coordinates":[2.358825945812807,46.64266963546793]}},{"type":"Feature","properties":{"nom":"Argent-sur-Sauldre","code":"18011","codeDepartement":"18","codeRegion":"24","codesPostaux":["18410"],"population":2122},"geometry":{"type":"Point","coordinates":[2.4287732487135525,47.55534626929673]}},{"type":"Feature","properties":{"nom":"Argenvières","code":"18012","codeDepartement":"18","codeRegion":"24","codesPostaux":["18140"],"population":471},"geometry":{"type":"Point","coordinates":[2.991506777777778,47.13962095424838]}},{"type":"Feature","properties":{"nom":"Arpheuilles","code":"18013","codeDepartement":"18","codeRegion":"24","codesPostaux":["18200"],"population":294},"geometry":{"type":"Point","coordinates":[2.5660493844444434,46.79364998666664]}},{"type":"Feature","properties":{"nom":"Assigny","code":"18014","codeDepartement":"18","codeRegion":"24","codesPostaux":["18260"],"population":157},"geometry":{"type":"Point","coordinates":[2.734399705882353,47.42603888235294]}},{"type":"Feature","properties":{"nom":"Aubigny-sur-Nère","code":"18015","codeDepartement":"18","codeRegion":"24","codesPostaux":["18700"],"population":5514},"geometry":{"type":"Point","coordinates":[2.4377501150097474,47.47630213255358]}},{"type":"Feature","properties":{"nom":"Aubinges","code":"18016","codeDepartement":"18","codeRegion":"24","codesPostaux":["18220"],"population":375},"geometry":{"type":"Point","coordinates":[2.5841023149999995,47.218895479999986]}},{"type":"Feature","properties":{"nom":"Augy-sur-Aubois","code":"18017","codeDepartement":"18","codeRegion":"24","codesPostaux":["18600"],"population":291},"geometry":{"type":"Point","coordinates":[2.8622066259740264,46.786970968831184]}},{"type":"Feature","properties":{"nom":"Avord","code":"18018","codeDepartement":"18","codeRegion":"24","codesPostaux":["18520","18490"],"population":2606},"geometry":{"type":"Point","coordinates":[2.6580359521276598,47.033650803191456]}},{"type":"Feature","properties":{"nom":"Azy","code":"18019","codeDepartement":"18","codeRegion":"24","codesPostaux":["18220"],"population":445},"geometry":{"type":"Point","coordinates":[2.708076944444444,47.19307802083332]}},{"type":"Feature","properties":{"nom":"Bannay","code":"18020","codeDepartement":"18","codeRegion":"24","codesPostaux":["18300"],"population":931},"geometry":{"type":"Point","coordinates":[2.8675536078431367,47.384334032679746]}},{"type":"Feature","properties":{"nom":"Bannegon","code":"18021","codeDepartement":"18","codeRegion":"24","codesPostaux":["18210"],"population":266},"geometry":{"type":"Point","coordinates":[2.7249966430868167,46.80231247266884]}},{"type":"Feature","properties":{"nom":"Barlieu","code":"18022","codeDepartement":"18","codeRegion":"24","codesPostaux":["18260"],"population":370},"geometry":{"type":"Point","coordinates":[2.6198663427895994,47.49237298108744]}},{"type":"Feature","properties":{"nom":"Baugy","code":"18023","codeDepartement":"18","codeRegion":"24","codesPostaux":["18800"],"population":1725},"geometry":{"type":"Point","coordinates":[2.7491410744680853,47.05157367659575]}},{"type":"Feature","properties":{"nom":"Beddes","code":"18024","codeDepartement":"18","codeRegion":"24","codesPostaux":["18370"],"population":90},"geometry":{"type":"Point","coordinates":[2.209657660098522,46.60962207142858]}},{"type":"Feature","properties":{"nom":"Beffes","code":"18025","codeDepartement":"18","codeRegion":"24","codesPostaux":["18320"],"population":653},"geometry":{"type":"Point","coordinates":[3.0009290238095234,47.09401313095238]}},{"type":"Feature","properties":{"nom":"Belleville-sur-Loire","code":"18026","codeDepartement":"18","codeRegion":"24","codesPostaux":["18240"],"population":1054},"geometry":{"type":"Point","coordinates":[2.833187556149733,47.49967636363636]}},{"type":"Feature","properties":{"nom":"Bengy-sur-Craon","code":"18027","codeDepartement":"18","codeRegion":"24","codesPostaux":["18520"],"population":666},"geometry":{"type":"Point","coordinates":[2.7489512635467994,46.99439030295568]}},{"type":"Feature","properties":{"nom":"Berry-Bouy","code":"18028","codeDepartement":"18","codeRegion":"24","codesPostaux":["18500"],"population":1187},"geometry":{"type":"Point","coordinates":[2.2885295892857123,47.12344252110388]}},{"type":"Feature","properties":{"nom":"Bessais-le-Fromental","code":"18029","codeDepartement":"18","codeRegion":"24","codesPostaux":["18210"],"population":323},"geometry":{"type":"Point","coordinates":[2.7721049018867925,46.74926176981135]}},{"type":"Feature","properties":{"nom":"Blancafort","code":"18030","codeDepartement":"18","codeRegion":"24","codesPostaux":["18410"],"population":1049},"geometry":{"type":"Point","coordinates":[2.5496533901345293,47.53790028849032]}},{"type":"Feature","properties":{"nom":"Blet","code":"18031","codeDepartement":"18","codeRegion":"24","codesPostaux":["18350"],"population":579},"geometry":{"type":"Point","coordinates":[2.7281270105042026,46.88453860924375]}},{"type":"Feature","properties":{"nom":"Boulleret","code":"18032","codeDepartement":"18","codeRegion":"24","codesPostaux":["18240"],"population":1427},"geometry":{"type":"Point","coordinates":[2.881033619047619,47.438989476190464]}},{"type":"Feature","properties":{"nom":"Bourges","code":"18033","codeDepartement":"18","codeRegion":"24","codesPostaux":["18000"],"population":65555},"geometry":{"type":"Point","coordinates":[2.398728621739131,47.08266442173914]}},{"type":"Feature","properties":{"nom":"Bouzais","code":"18034","codeDepartement":"18","codeRegion":"24","codesPostaux":["18200"],"population":318},"geometry":{"type":"Point","coordinates":[2.468591704918034,46.70476870491802]}},{"type":"Feature","properties":{"nom":"Brécy","code":"18035","codeDepartement":"18","codeRegion":"24","codesPostaux":["18220"],"population":982},"geometry":{"type":"Point","coordinates":[2.646285616306955,47.13421432134291]}},{"type":"Feature","properties":{"nom":"Brinay","code":"18036","codeDepartement":"18","codeRegion":"24","codesPostaux":["18120"],"population":526},"geometry":{"type":"Point","coordinates":[2.115319747933884,47.168395762396656]}},{"type":"Feature","properties":{"nom":"Brinon-sur-Sauldre","code":"18037","codeDepartement":"18","codeRegion":"24","codesPostaux":["18410"],"population":993},"geometry":{"type":"Point","coordinates":[2.221767219298247,47.58329836842104]}},{"type":"Feature","properties":{"nom":"Bruère-Allichamps","code":"18038","codeDepartement":"18","codeRegion":"24","codesPostaux":["18200"],"population":565},"geometry":{"type":"Point","coordinates":[2.43118146961326,46.7690091077348]}},{"type":"Feature","properties":{"nom":"Bué","code":"18039","codeDepartement":"18","codeRegion":"24","codesPostaux":["18300"],"population":310},"geometry":{"type":"Point","coordinates":[2.793272174757281,47.31003765048542]}},{"type":"Feature","properties":{"nom":"Bussy","code":"18040","codeDepartement":"18","codeRegion":"24","codesPostaux":["18130"],"population":380},"geometry":{"type":"Point","coordinates":[2.629747039525693,46.89084219762846]}},{"type":"Feature","properties":{"nom":"La Celette","code":"18041","codeDepartement":"18","codeRegion":"24","codesPostaux":["18360"],"population":176},"geometry":{"type":"Point","coordinates":[2.5254527726269314,46.64097117439297]}},{"type":"Feature","properties":{"nom":"La Celle","code":"18042","codeDepartement":"18","codeRegion":"24","codesPostaux":["18200"],"population":350},"geometry":{"type":"Point","coordinates":[2.4602666863636364,46.77429776363634]}},{"type":"Feature","properties":{"nom":"La Celle-Condé","code":"18043","codeDepartement":"18","codeRegion":"24","codesPostaux":["18160"],"population":205},"geometry":{"type":"Point","coordinates":[2.1796800887573955,46.78863028402368]}},{"type":"Feature","properties":{"nom":"Cerbois","code":"18044","codeDepartement":"18","codeRegion":"24","codesPostaux":["18120"],"population":433},"geometry":{"type":"Point","coordinates":[2.1091401583710407,47.114710846153855]}},{"type":"Feature","properties":{"nom":"Chalivoy-Milon","code":"18045","codeDepartement":"18","codeRegion":"24","codesPostaux":["18130"],"population":438},"geometry":{"type":"Point","coordinates":[2.7026359855595654,46.85926467148017]}},{"type":"Feature","properties":{"nom":"Chambon","code":"18046","codeDepartement":"18","codeRegion":"24","codesPostaux":["18190"],"population":173},"geometry":{"type":"Point","coordinates":[2.3513857396226414,46.77256870566038]}},{"type":"Feature","properties":{"nom":"La Chapelle-d'Angillon","code":"18047","codeDepartement":"18","codeRegion":"24","codesPostaux":["18380"],"population":636},"geometry":{"type":"Point","coordinates":[2.43889198028169,47.36982127323945]}},{"type":"Feature","properties":{"nom":"La Chapelle-Hugon","code":"18048","codeDepartement":"18","codeRegion":"24","codesPostaux":["18150"],"population":391},"geometry":{"type":"Point","coordinates":[2.943029516224187,46.897435929203596]}},{"type":"Feature","properties":{"nom":"La Chapelle-Montlinard","code":"18049","codeDepartement":"18","codeRegion":"24","codesPostaux":["18140"],"population":478},"geometry":{"type":"Point","coordinates":[2.9774433903743316,47.175396090909096]}},{"type":"Feature","properties":{"nom":"La Chapelle-Saint-Ursin","code":"18050","codeDepartement":"18","codeRegion":"24","codesPostaux":["18570"],"population":3475},"geometry":{"type":"Point","coordinates":[2.315057280487806,47.05597947560976]}},{"type":"Feature","properties":{"nom":"La Chapelotte","code":"18051","codeDepartement":"18","codeRegion":"24","codesPostaux":["18250"],"population":158},"geometry":{"type":"Point","coordinates":[2.606073265700482,47.326472188405795]}},{"type":"Feature","properties":{"nom":"Charenton-du-Cher","code":"18052","codeDepartement":"18","codeRegion":"24","codesPostaux":["18210"],"population":1063},"geometry":{"type":"Point","coordinates":[2.6644419098497507,46.74009475959933]}},{"type":"Feature","properties":{"nom":"Charentonnay","code":"18053","codeDepartement":"18","codeRegion":"24","codesPostaux":["18140"],"population":287},"geometry":{"type":"Point","coordinates":[2.8660551347517718,47.14481866312055]}},{"type":"Feature","properties":{"nom":"Charly","code":"18054","codeDepartement":"18","codeRegion":"24","codesPostaux":["18350"],"population":251},"geometry":{"type":"Point","coordinates":[2.7538916382189247,46.90948541743968]}},{"type":"Feature","properties":{"nom":"Chârost","code":"18055","codeDepartement":"18","codeRegion":"24","codesPostaux":["18290"],"population":986},"geometry":{"type":"Point","coordinates":[2.1259090955414024,46.99324343312101]}},{"type":"Feature","properties":{"nom":"Chassy","code":"18056","codeDepartement":"18","codeRegion":"24","codesPostaux":["18800"],"population":245},"geometry":{"type":"Point","coordinates":[2.8337109746835445,47.04057603291137]}},{"type":"Feature","properties":{"nom":"Châteaumeillant","code":"18057","codeDepartement":"18","codeRegion":"24","codesPostaux":["18370"],"population":1856},"geometry":{"type":"Point","coordinates":[2.211592026687597,46.55303799529042]}},{"type":"Feature","properties":{"nom":"Châteauneuf-sur-Cher","code":"18058","codeDepartement":"18","codeRegion":"24","codesPostaux":["18190"],"population":1456},"geometry":{"type":"Point","coordinates":[2.338911491735537,46.87002249999997]}},{"type":"Feature","properties":{"nom":"Le Châtelet","code":"18059","codeDepartement":"18","codeRegion":"24","codesPostaux":["18170"],"population":1031},"geometry":{"type":"Point","coordinates":[2.2865277947122875,46.62197534370145]}},{"type":"Feature","properties":{"nom":"Chaumont","code":"18060","codeDepartement":"18","codeRegion":"24","codesPostaux":["18350"],"population":54},"geometry":{"type":"Point","coordinates":[2.7521566906474826,46.84157090647483]}},{"type":"Feature","properties":{"nom":"Chaumoux-Marcilly","code":"18061","codeDepartement":"18","codeRegion":"24","codesPostaux":["18140"],"population":97},"geometry":{"type":"Point","coordinates":[2.7788338266129027,47.1432039516129]}},{"type":"Feature","properties":{"nom":"Le Chautay","code":"18062","codeDepartement":"18","codeRegion":"24","codesPostaux":["18150"],"population":305},"geometry":{"type":"Point","coordinates":[2.9634943257575745,46.98658505555554]}},{"type":"Feature","properties":{"nom":"Chavannes","code":"18063","codeDepartement":"18","codeRegion":"24","codesPostaux":["18190"],"population":175},"geometry":{"type":"Point","coordinates":[2.4080944293478255,46.871913250000006]}},{"type":"Feature","properties":{"nom":"Chéry","code":"18064","codeDepartement":"18","codeRegion":"24","codesPostaux":["18120"],"population":211},"geometry":{"type":"Point","coordinates":[2.029316749999999,47.116202845678984]}},{"type":"Feature","properties":{"nom":"Chezal-Benoît","code":"18065","codeDepartement":"18","codeRegion":"24","codesPostaux":["18160"],"population":835},"geometry":{"type":"Point","coordinates":[2.1006544429530214,46.832205583892616]}},{"type":"Feature","properties":{"nom":"Civray","code":"18066","codeDepartement":"18","codeRegion":"24","codesPostaux":["18290"],"population":950},"geometry":{"type":"Point","coordinates":[2.1858463213429276,46.97314757793767]}},{"type":"Feature","properties":{"nom":"Clémont","code":"18067","codeDepartement":"18","codeRegion":"24","codesPostaux":["18410"],"population":724},"geometry":{"type":"Point","coordinates":[2.3444736043689356,47.565003211165084]}},{"type":"Feature","properties":{"nom":"Cogny","code":"18068","codeDepartement":"18","codeRegion":"24","codesPostaux":["18130"],"population":37},"geometry":{"type":"Point","coordinates":[2.6431781702898554,46.85420968115942]}},{"type":"Feature","properties":{"nom":"Colombiers","code":"18069","codeDepartement":"18","codeRegion":"24","codesPostaux":["18200"],"population":407},"geometry":{"type":"Point","coordinates":[2.559965097674418,46.700028311627925]}},{"type":"Feature","properties":{"nom":"Concressault","code":"18070","codeDepartement":"18","codeRegion":"24","codesPostaux":["18260"],"population":205},"geometry":{"type":"Point","coordinates":[2.5714511090909093,47.49318466363635]}},{"type":"Feature","properties":{"nom":"Contres","code":"18071","codeDepartement":"18","codeRegion":"24","codesPostaux":["18130"],"population":33},"geometry":{"type":"Point","coordinates":[2.501766333333333,46.85244872340427]}},{"type":"Feature","properties":{"nom":"Cornusse","code":"18072","codeDepartement":"18","codeRegion":"24","codesPostaux":["18350"],"population":270},"geometry":{"type":"Point","coordinates":[2.7386690560000027,46.955443948000024]}},{"type":"Feature","properties":{"nom":"Corquoy","code":"18073","codeDepartement":"18","codeRegion":"24","codesPostaux":["18190","18340"],"population":217},"geometry":{"type":"Point","coordinates":[2.329956473214288,46.90618931696431]}},{"type":"Feature","properties":{"nom":"Couargues","code":"18074","codeDepartement":"18","codeRegion":"24","codesPostaux":["18300"],"population":205},"geometry":{"type":"Point","coordinates":[2.924572750000001,47.28760463888888]}},{"type":"Feature","properties":{"nom":"Cours-les-Barres","code":"18075","codeDepartement":"18","codeRegion":"24","codesPostaux":["18320"],"population":1044},"geometry":{"type":"Point","coordinates":[3.0423368026905835,47.02605408071751]}},{"type":"Feature","properties":{"nom":"Coust","code":"18076","codeDepartement":"18","codeRegion":"24","codesPostaux":["18210"],"population":448},"geometry":{"type":"Point","coordinates":[2.5976393102493067,46.68399549861494]}},{"type":"Feature","properties":{"nom":"Couy","code":"18077","codeDepartement":"18","codeRegion":"24","codesPostaux":["18140"],"population":351},"geometry":{"type":"Point","coordinates":[2.831823077966103,47.11027917288136]}},{"type":"Feature","properties":{"nom":"Crézançay-sur-Cher","code":"18078","codeDepartement":"18","codeRegion":"24","codesPostaux":["18190"],"population":55},"geometry":{"type":"Point","coordinates":[2.3478436455696197,46.81813148101264]}},{"type":"Feature","properties":{"nom":"Crézancy-en-Sancerre","code":"18079","codeDepartement":"18","codeRegion":"24","codesPostaux":["18300"],"population":483},"geometry":{"type":"Point","coordinates":[2.736000480113637,47.30552131534088]}},{"type":"Feature","properties":{"nom":"Croisy","code":"18080","codeDepartement":"18","codeRegion":"24","codesPostaux":["18350"],"population":161},"geometry":{"type":"Point","coordinates":[2.8238230694980677,46.93165205019309]}},{"type":"Feature","properties":{"nom":"Crosses","code":"18081","codeDepartement":"18","codeRegion":"24","codesPostaux":["18340"],"population":385},"geometry":{"type":"Point","coordinates":[2.570204127272728,47.00706430303028]}},{"type":"Feature","properties":{"nom":"Cuffy","code":"18082","codeDepartement":"18","codeRegion":"24","codesPostaux":["18150"],"population":1097},"geometry":{"type":"Point","coordinates":[3.029519060941829,46.96657781994461]}},{"type":"Feature","properties":{"nom":"Culan","code":"18083","codeDepartement":"18","codeRegion":"24","codesPostaux":["18270"],"population":723},"geometry":{"type":"Point","coordinates":[2.360601412887827,46.54893312649159]}},{"type":"Feature","properties":{"nom":"Dampierre-en-Crot","code":"18084","codeDepartement":"18","codeRegion":"24","codesPostaux":["18260"],"population":204},"geometry":{"type":"Point","coordinates":[2.58014503532009,47.457738913907306]}},{"type":"Feature","properties":{"nom":"Dampierre-en-Graçay","code":"18085","codeDepartement":"18","codeRegion":"24","codesPostaux":["18310"],"population":254},"geometry":{"type":"Point","coordinates":[1.9429602076923078,47.1828802230769]}},{"type":"Feature","properties":{"nom":"Drevant","code":"18086","codeDepartement":"18","codeRegion":"24","codesPostaux":["18200"],"population":558},"geometry":{"type":"Point","coordinates":[2.521894632352943,46.697991269607854]}},{"type":"Feature","properties":{"nom":"Dun-sur-Auron","code":"18087","codeDepartement":"18","codeRegion":"24","codesPostaux":["18130"],"population":3945},"geometry":{"type":"Point","coordinates":[2.578626548628429,46.87382521446381]}},{"type":"Feature","properties":{"nom":"Ennordres","code":"18088","codeDepartement":"18","codeRegion":"24","codesPostaux":["18380"],"population":209},"geometry":{"type":"Point","coordinates":[2.4281976656976747,47.417219707848815]}},{"type":"Feature","properties":{"nom":"Épineuil-le-Fleuriel","code":"18089","codeDepartement":"18","codeRegion":"24","codesPostaux":["18360"],"population":449},"geometry":{"type":"Point","coordinates":[2.5577859662058398,46.56875110445477]}},{"type":"Feature","properties":{"nom":"Étréchy","code":"18090","codeDepartement":"18","codeRegion":"24","codesPostaux":["18800"],"population":456},"geometry":{"type":"Point","coordinates":[2.71465964012739,47.15599214331212]}},{"type":"Feature","properties":{"nom":"Farges-Allichamps","code":"18091","codeDepartement":"18","codeRegion":"24","codesPostaux":["18200"],"population":241},"geometry":{"type":"Point","coordinates":[2.4119067,46.75664856400004]}},{"type":"Feature","properties":{"nom":"Farges-en-Septaine","code":"18092","codeDepartement":"18","codeRegion":"24","codesPostaux":["18800"],"population":1026},"geometry":{"type":"Point","coordinates":[2.6465565255474424,47.05876227737226]}},{"type":"Feature","properties":{"nom":"Faverdines","code":"18093","codeDepartement":"18","codeRegion":"24","codesPostaux":["18360"],"population":144},"geometry":{"type":"Point","coordinates":[2.4709598726591753,46.648335453183556]}},{"type":"Feature","properties":{"nom":"Feux","code":"18094","codeDepartement":"18","codeRegion":"24","codesPostaux":["18300"],"population":341},"geometry":{"type":"Point","coordinates":[2.8771346571428564,47.2305642]}},{"type":"Feature","properties":{"nom":"Flavigny","code":"18095","codeDepartement":"18","codeRegion":"24","codesPostaux":["18350"],"population":203},"geometry":{"type":"Point","coordinates":[2.800902266666667,46.96374435873019]}},{"type":"Feature","properties":{"nom":"Foëcy","code":"18096","codeDepartement":"18","codeRegion":"24","codesPostaux":["18500"],"population":2084},"geometry":{"type":"Point","coordinates":[2.1526073153153145,47.18476972072077]}},{"type":"Feature","properties":{"nom":"Fussy","code":"18097","codeDepartement":"18","codeRegion":"24","codesPostaux":["18110"],"population":1981},"geometry":{"type":"Point","coordinates":[2.4253660173010387,47.14367744982698]}},{"type":"Feature","properties":{"nom":"Gardefort","code":"18098","codeDepartement":"18","codeRegion":"24","codesPostaux":["18300"],"population":148},"geometry":{"type":"Point","coordinates":[2.8181847413793095,47.256503698275864]}},{"type":"Feature","properties":{"nom":"Garigny","code":"18099","codeDepartement":"18","codeRegion":"24","codesPostaux":["18140"],"population":248},"geometry":{"type":"Point","coordinates":[2.8831300278551533,47.084348431754854]}},{"type":"Feature","properties":{"nom":"Genouilly","code":"18100","codeDepartement":"18","codeRegion":"24","codesPostaux":["18310"],"population":686},"geometry":{"type":"Point","coordinates":[1.8889044206349208,47.19298916666667]}},{"type":"Feature","properties":{"nom":"Germigny-l'Exempt","code":"18101","codeDepartement":"18","codeRegion":"24","codesPostaux":["18150"],"population":309},"geometry":{"type":"Point","coordinates":[2.8843023844444415,46.91025269777782]}},{"type":"Feature","properties":{"nom":"Givardon","code":"18102","codeDepartement":"18","codeRegion":"24","codesPostaux":["18600"],"population":298},"geometry":{"type":"Point","coordinates":[2.794268227390181,46.84002142635657]}},{"type":"Feature","properties":{"nom":"Graçay","code":"18103","codeDepartement":"18","codeRegion":"24","codesPostaux":["18310"],"population":1454},"geometry":{"type":"Point","coordinates":[1.844922518518518,47.14846337037039]}},{"type":"Feature","properties":{"nom":"Groises","code":"18104","codeDepartement":"18","codeRegion":"24","codesPostaux":["18140"],"population":135},"geometry":{"type":"Point","coordinates":[2.8124240955414006,47.20147268152866]}},{"type":"Feature","properties":{"nom":"Gron","code":"18105","codeDepartement":"18","codeRegion":"24","codesPostaux":["18800"],"population":475},"geometry":{"type":"Point","coordinates":[2.7421572701421804,47.122019753554476]}},{"type":"Feature","properties":{"nom":"Grossouvre","code":"18106","codeDepartement":"18","codeRegion":"24","codesPostaux":["18600"],"population":278},"geometry":{"type":"Point","coordinates":[2.9295538110465125,46.87594336337209]}},{"type":"Feature","properties":{"nom":"La Groutte","code":"18107","codeDepartement":"18","codeRegion":"24","codesPostaux":["18200"],"population":129},"geometry":{"type":"Point","coordinates":[2.5131865564516134,46.68991729838711]}},{"type":"Feature","properties":{"nom":"La Guerche-sur-l'Aubois","code":"18108","codeDepartement":"18","codeRegion":"24","codesPostaux":["18150"],"population":3322},"geometry":{"type":"Point","coordinates":[2.941230803076921,46.95540579538461]}},{"type":"Feature","properties":{"nom":"Henrichemont","code":"18109","codeDepartement":"18","codeRegion":"24","codesPostaux":["18250"],"population":1778},"geometry":{"type":"Point","coordinates":[2.5465870474777472,47.296068816023784]}},{"type":"Feature","properties":{"nom":"Herry","code":"18110","codeDepartement":"18","codeRegion":"24","codesPostaux":["18140"],"population":1002},"geometry":{"type":"Point","coordinates":[2.9267632039473703,47.2235970625]}},{"type":"Feature","properties":{"nom":"Humbligny","code":"18111","codeDepartement":"18","codeRegion":"24","codesPostaux":["18250"],"population":194},"geometry":{"type":"Point","coordinates":[2.6477738307210035,47.26781090282133]}},{"type":"Feature","properties":{"nom":"Ids-Saint-Roch","code":"18112","codeDepartement":"18","codeRegion":"24","codesPostaux":["18170"],"population":307},"geometry":{"type":"Point","coordinates":[2.2568993276283638,46.71184769193156]}},{"type":"Feature","properties":{"nom":"Ignol","code":"18113","codeDepartement":"18","codeRegion":"24","codesPostaux":["18350"],"population":180},"geometry":{"type":"Point","coordinates":[2.863771551546393,46.96255438402064]}},{"type":"Feature","properties":{"nom":"Ineuil","code":"18114","codeDepartement":"18","codeRegion":"24","codesPostaux":["18160"],"population":244},"geometry":{"type":"Point","coordinates":[2.2641506313868622,46.76471299635035]}},{"type":"Feature","properties":{"nom":"Ivoy-le-Pré","code":"18115","codeDepartement":"18","codeRegion":"24","codesPostaux":["18380"],"population":809},"geometry":{"type":"Point","coordinates":[2.498629550796811,47.36090823406381]}},{"type":"Feature","properties":{"nom":"Jalognes","code":"18116","codeDepartement":"18","codeRegion":"24","codesPostaux":["18300"],"population":299},"geometry":{"type":"Point","coordinates":[2.777989343589741,47.23426186666662]}},{"type":"Feature","properties":{"nom":"Jars","code":"18117","codeDepartement":"18","codeRegion":"24","codesPostaux":["18260"],"population":511},"geometry":{"type":"Point","coordinates":[2.6684857340314196,47.39685017486916]}},{"type":"Feature","properties":{"nom":"Jouet-sur-l'Aubois","code":"18118","codeDepartement":"18","codeRegion":"24","codesPostaux":["18320"],"population":1364},"geometry":{"type":"Point","coordinates":[3.0033574782608694,47.04581160144926]}},{"type":"Feature","properties":{"nom":"Jussy-Champagne","code":"18119","codeDepartement":"18","codeRegion":"24","codesPostaux":["18130"],"population":190},"geometry":{"type":"Point","coordinates":[2.648764266055044,46.99068939449541]}},{"type":"Feature","properties":{"nom":"Jussy-le-Chaudrier","code":"18120","codeDepartement":"18","codeRegion":"24","codesPostaux":["18140"],"population":617},"geometry":{"type":"Point","coordinates":[2.9337237037037034,47.12481667320258]}},{"type":"Feature","properties":{"nom":"Lantan","code":"18121","codeDepartement":"18","codeRegion":"24","codesPostaux":["18130"],"population":90},"geometry":{"type":"Point","coordinates":[2.668917030456852,46.90301670558378]}},{"type":"Feature","properties":{"nom":"Lapan","code":"18122","codeDepartement":"18","codeRegion":"24","codesPostaux":["18340"],"population":203},"geometry":{"type":"Point","coordinates":[2.2895324242424246,46.91931285281383]}},{"type":"Feature","properties":{"nom":"Lazenay","code":"18124","codeDepartement":"18","codeRegion":"24","codesPostaux":["18120"],"population":344},"geometry":{"type":"Point","coordinates":[2.0689382920353987,47.06993465663717]}},{"type":"Feature","properties":{"nom":"Léré","code":"18125","codeDepartement":"18","codeRegion":"24","codesPostaux":["18240"],"population":1114},"geometry":{"type":"Point","coordinates":[2.8715312325581404,47.45912079069768]}},{"type":"Feature","properties":{"nom":"Levet","code":"18126","codeDepartement":"18","codeRegion":"24","codesPostaux":["18340"],"population":1397},"geometry":{"type":"Point","coordinates":[2.3859987810650902,46.92229592011838]}},{"type":"Feature","properties":{"nom":"Lignières","code":"18127","codeDepartement":"18","codeRegion":"24","codesPostaux":["18160"],"population":1367},"geometry":{"type":"Point","coordinates":[2.1960559181415946,46.75775467035398]}},{"type":"Feature","properties":{"nom":"Limeux","code":"18128","codeDepartement":"18","codeRegion":"24","codesPostaux":["18120"],"population":160},"geometry":{"type":"Point","coordinates":[2.1328488103448273,47.07727312068964]}},{"type":"Feature","properties":{"nom":"Lissay-Lochy","code":"18129","codeDepartement":"18","codeRegion":"24","codesPostaux":["18340"],"population":224},"geometry":{"type":"Point","coordinates":[2.392829526595744,46.97409455319148]}},{"type":"Feature","properties":{"nom":"Loye-sur-Arnon","code":"18130","codeDepartement":"18","codeRegion":"24","codesPostaux":["18170"],"population":308},"geometry":{"type":"Point","coordinates":[2.3801548580121707,46.63606292494928]}},{"type":"Feature","properties":{"nom":"Lugny-Bourbonnais","code":"18131","codeDepartement":"18","codeRegion":"24","codesPostaux":["18350"],"population":36},"geometry":{"type":"Point","coordinates":[2.7078032397660814,46.93261045614036]}},{"type":"Feature","properties":{"nom":"Lugny-Champagne","code":"18132","codeDepartement":"18","codeRegion":"24","codesPostaux":["18140"],"population":144},"geometry":{"type":"Point","coordinates":[2.831085911392405,47.17400993987342]}},{"type":"Feature","properties":{"nom":"Lunery","code":"18133","codeDepartement":"18","codeRegion":"24","codesPostaux":["18400"],"population":1541},"geometry":{"type":"Point","coordinates":[2.255939792207793,46.937215774025965]}},{"type":"Feature","properties":{"nom":"Lury-sur-Arnon","code":"18134","codeDepartement":"18","codeRegion":"24","codesPostaux":["18120"],"population":673},"geometry":{"type":"Point","coordinates":[2.0572980071258913,47.13488879334917]}},{"type":"Feature","properties":{"nom":"Maisonnais","code":"18135","codeDepartement":"18","codeRegion":"24","codesPostaux":["18170"],"population":239},"geometry":{"type":"Point","coordinates":[2.2142667248576866,46.63569647817834]}},{"type":"Feature","properties":{"nom":"Marçais","code":"18136","codeDepartement":"18","codeRegion":"24","codesPostaux":["18170"],"population":285},"geometry":{"type":"Point","coordinates":[2.3473023314917127,46.700137781767914]}},{"type":"Feature","properties":{"nom":"Mareuil-sur-Arnon","code":"18137","codeDepartement":"18","codeRegion":"24","codesPostaux":["18290"],"population":546},"geometry":{"type":"Point","coordinates":[2.177531710227273,46.8917378409091]}},{"type":"Feature","properties":{"nom":"Marmagne","code":"18138","codeDepartement":"18","codeRegion":"24","codesPostaux":["18500"],"population":1982},"geometry":{"type":"Point","coordinates":[2.2799908867069476,47.09904343202424]}},{"type":"Feature","properties":{"nom":"Marseilles-lès-Aubigny","code":"18139","codeDepartement":"18","codeRegion":"24","codesPostaux":["18320"],"population":656},"geometry":{"type":"Point","coordinates":[2.986126851282052,47.06654625641027]}},{"type":"Feature","properties":{"nom":"Massay","code":"18140","codeDepartement":"18","codeRegion":"24","codesPostaux":["18120"],"population":1396},"geometry":{"type":"Point","coordinates":[2.003007900237529,47.15736570546318]}},{"type":"Feature","properties":{"nom":"Mehun-sur-Yèvre","code":"18141","codeDepartement":"18","codeRegion":"24","codesPostaux":["18500"],"population":6571},"geometry":{"type":"Point","coordinates":[2.2327935008912627,47.13853639037433]}},{"type":"Feature","properties":{"nom":"Meillant","code":"18142","codeDepartement":"18","codeRegion":"24","codesPostaux":["18200"],"population":686},"geometry":{"type":"Point","coordinates":[2.5114887130044865,46.78285976681613]}},{"type":"Feature","properties":{"nom":"Menetou-Couture","code":"18143","codeDepartement":"18","codeRegion":"24","codesPostaux":["18320"],"population":361},"geometry":{"type":"Point","coordinates":[2.9369009254545455,47.041899145454536]}},{"type":"Feature","properties":{"nom":"Menetou-Râtel","code":"18144","codeDepartement":"18","codeRegion":"24","codesPostaux":["18300"],"population":492},"geometry":{"type":"Point","coordinates":[2.748321877906976,47.350244857558145]}},{"type":"Feature","properties":{"nom":"Menetou-Salon","code":"18145","codeDepartement":"18","codeRegion":"24","codesPostaux":["18510"],"population":1622},"geometry":{"type":"Point","coordinates":[2.4860015759999983,47.236864340000025]}},{"type":"Feature","properties":{"nom":"Ménétréol-sous-Sancerre","code":"18146","codeDepartement":"18","codeRegion":"24","codesPostaux":["18300"],"population":314},"geometry":{"type":"Point","coordinates":[2.8613350795454546,47.31931862499999]}},{"type":"Feature","properties":{"nom":"Ménétréol-sur-Sauldre","code":"18147","codeDepartement":"18","codeRegion":"24","codesPostaux":["18700"],"population":216},"geometry":{"type":"Point","coordinates":[2.281518885650226,47.45183681165923]}},{"type":"Feature","properties":{"nom":"Méreau","code":"18148","codeDepartement":"18","codeRegion":"24","codesPostaux":["18120"],"population":2633},"geometry":{"type":"Point","coordinates":[2.048375006825937,47.17944351535832]}},{"type":"Feature","properties":{"nom":"Méry-ès-Bois","code":"18149","codeDepartement":"18","codeRegion":"24","codesPostaux":["18380"],"population":576},"geometry":{"type":"Point","coordinates":[2.377276030592737,47.31604615487576]}},{"type":"Feature","properties":{"nom":"Méry-sur-Cher","code":"18150","codeDepartement":"18","codeRegion":"24","codesPostaux":["18100"],"population":670},"geometry":{"type":"Point","coordinates":[1.9869733794212232,47.24330106752411]}},{"type":"Feature","properties":{"nom":"Montigny","code":"18151","codeDepartement":"18","codeRegion":"24","codesPostaux":["18250"],"population":384},"geometry":{"type":"Point","coordinates":[2.6970449050000007,47.241222080000014]}},{"type":"Feature","properties":{"nom":"Montlouis","code":"18152","codeDepartement":"18","codeRegion":"24","codesPostaux":["18160"],"population":110},"geometry":{"type":"Point","coordinates":[2.242620560483871,46.79870296774194]}},{"type":"Feature","properties":{"nom":"Morlac","code":"18153","codeDepartement":"18","codeRegion":"24","codesPostaux":["18170"],"population":330},"geometry":{"type":"Point","coordinates":[2.3199722447129916,46.721137111782454]}},{"type":"Feature","properties":{"nom":"Mornay-Berry","code":"18154","codeDepartement":"18","codeRegion":"24","codesPostaux":["18350"],"population":186},"geometry":{"type":"Point","coordinates":[2.8665883815789477,47.05615796381579]}},{"type":"Feature","properties":{"nom":"Mornay-sur-Allier","code":"18155","codeDepartement":"18","codeRegion":"24","codesPostaux":["18600"],"population":428},"geometry":{"type":"Point","coordinates":[3.0083491902834014,46.81845834412954]}},{"type":"Feature","properties":{"nom":"Morogues","code":"18156","codeDepartement":"18","codeRegion":"24","codesPostaux":["18220"],"population":443},"geometry":{"type":"Point","coordinates":[2.5827104510489525,47.25915472027976]}},{"type":"Feature","properties":{"nom":"Morthomiers","code":"18157","codeDepartement":"18","codeRegion":"24","codesPostaux":["18570"],"population":760},"geometry":{"type":"Point","coordinates":[2.275796732323231,47.046419712121214]}},{"type":"Feature","properties":{"nom":"Moulins-sur-Yèvre","code":"18158","codeDepartement":"18","codeRegion":"24","codesPostaux":["18390"],"population":849},"geometry":{"type":"Point","coordinates":[2.5263568131868133,47.09011943406593]}},{"type":"Feature","properties":{"nom":"Nançay","code":"18159","codeDepartement":"18","codeRegion":"24","codesPostaux":["18330"],"population":853},"geometry":{"type":"Point","coordinates":[2.17095160914761,47.35196821621619]}},{"type":"Feature","properties":{"nom":"Nérondes","code":"18160","codeDepartement":"18","codeRegion":"24","codesPostaux":["18350","18800"],"population":1492},"geometry":{"type":"Point","coordinates":[2.830224684482759,47.00191455517237]}},{"type":"Feature","properties":{"nom":"Neuilly-en-Dun","code":"18161","codeDepartement":"18","codeRegion":"24","codesPostaux":["18600"],"population":232},"geometry":{"type":"Point","coordinates":[2.7776839964539,46.80899928368794]}},{"type":"Feature","properties":{"nom":"Neuilly-en-Sancerre","code":"18162","codeDepartement":"18","codeRegion":"24","codesPostaux":["18250"],"population":256},"geometry":{"type":"Point","coordinates":[2.6488403203463213,47.309258958874445]}},{"type":"Feature","properties":{"nom":"Neuvy-Deux-Clochers","code":"18163","codeDepartement":"18","codeRegion":"24","codesPostaux":["18250"],"population":289},"geometry":{"type":"Point","coordinates":[2.67907503373494,47.28394617108433]}},{"type":"Feature","properties":{"nom":"Neuvy-le-Barrois","code":"18164","codeDepartement":"18","codeRegion":"24","codesPostaux":["18600"],"population":142},"geometry":{"type":"Point","coordinates":[3.018755794117646,46.863984329411714]}},{"type":"Feature","properties":{"nom":"Neuvy-sur-Barangeon","code":"18165","codeDepartement":"18","codeRegion":"24","codesPostaux":["18330"],"population":1197},"geometry":{"type":"Point","coordinates":[2.2699916603325425,47.318602294536824]}},{"type":"Feature","properties":{"nom":"Nohant-en-Goût","code":"18166","codeDepartement":"18","codeRegion":"24","codesPostaux":["18390"],"population":589},"geometry":{"type":"Point","coordinates":[2.583470354545454,47.08383210909092]}},{"type":"Feature","properties":{"nom":"Nohant-en-Graçay","code":"18167","codeDepartement":"18","codeRegion":"24","codesPostaux":["18310"],"population":304},"geometry":{"type":"Point","coordinates":[1.910752605839416,47.12793725547446]}},{"type":"Feature","properties":{"nom":"Le Noyer","code":"18168","codeDepartement":"18","codeRegion":"24","codesPostaux":["18260"],"population":220},"geometry":{"type":"Point","coordinates":[2.6620436041666644,47.37240346759251]}},{"type":"Feature","properties":{"nom":"Nozières","code":"18169","codeDepartement":"18","codeRegion":"24","codesPostaux":["18200"],"population":217},"geometry":{"type":"Point","coordinates":[2.422215411594203,46.73649186086956]}},{"type":"Feature","properties":{"nom":"Oizon","code":"18170","codeDepartement":"18","codeRegion":"24","codesPostaux":["18700"],"population":677},"geometry":{"type":"Point","coordinates":[2.5086709678899073,47.451658960244636]}},{"type":"Feature","properties":{"nom":"Orcenais","code":"18171","codeDepartement":"18","codeRegion":"24","codesPostaux":["18200"],"population":253},"geometry":{"type":"Point","coordinates":[2.4185792759856644,46.71384609318996]}},{"type":"Feature","properties":{"nom":"Orval","code":"18172","codeDepartement":"18","codeRegion":"24","codesPostaux":["18200"],"population":1815},"geometry":{"type":"Point","coordinates":[2.467016509803921,46.720205642156834]}},{"type":"Feature","properties":{"nom":"Osmery","code":"18173","codeDepartement":"18","codeRegion":"24","codesPostaux":["18130"],"population":271},"geometry":{"type":"Point","coordinates":[2.6592305271739116,46.93450478804346]}},{"type":"Feature","properties":{"nom":"Osmoy","code":"18174","codeDepartement":"18","codeRegion":"24","codesPostaux":["18390"],"population":275},"geometry":{"type":"Point","coordinates":[2.5082623586497883,47.06999314767934]}},{"type":"Feature","properties":{"nom":"Ourouer-les-Bourdelins","code":"18175","codeDepartement":"18","codeRegion":"24","codesPostaux":["18350"],"population":615},"geometry":{"type":"Point","coordinates":[2.793117737704919,46.91873884153006]}},{"type":"Feature","properties":{"nom":"Parassy","code":"18176","codeDepartement":"18","codeRegion":"24","codesPostaux":["18220"],"population":419},"geometry":{"type":"Point","coordinates":[2.5438981561338267,47.249802706319706]}},{"type":"Feature","properties":{"nom":"Parnay","code":"18177","codeDepartement":"18","codeRegion":"24","codesPostaux":["18130"],"population":65},"geometry":{"type":"Point","coordinates":[2.564478209964411,46.851038256227795]}},{"type":"Feature","properties":{"nom":"La Perche","code":"18178","codeDepartement":"18","codeRegion":"24","codesPostaux":["18200"],"population":209},"geometry":{"type":"Point","coordinates":[2.572033069892473,46.63421815591396]}},{"type":"Feature","properties":{"nom":"Pigny","code":"18179","codeDepartement":"18","codeRegion":"24","codesPostaux":["18110"],"population":946},"geometry":{"type":"Point","coordinates":[2.443272820000001,47.163915248000016]}},{"type":"Feature","properties":{"nom":"Plaimpied-Givaudins","code":"18180","codeDepartement":"18","codeRegion":"24","codesPostaux":["18340"],"population":1979},"geometry":{"type":"Point","coordinates":[2.4305068417721523,47.00920363924048]}},{"type":"Feature","properties":{"nom":"Plou","code":"18181","codeDepartement":"18","codeRegion":"24","codesPostaux":["18290"],"population":528},"geometry":{"type":"Point","coordinates":[2.152470780334727,47.03595940376565]}},{"type":"Feature","properties":{"nom":"Poisieux","code":"18182","codeDepartement":"18","codeRegion":"24","codesPostaux":["18290"],"population":222},"geometry":{"type":"Point","coordinates":[2.0839119473684207,47.03275513684208]}},{"type":"Feature","properties":{"nom":"Le Pondy","code":"18183","codeDepartement":"18","codeRegion":"24","codesPostaux":["18210"],"population":141},"geometry":{"type":"Point","coordinates":[2.6374367163461545,46.8027576346154]}},{"type":"Feature","properties":{"nom":"Précy","code":"18184","codeDepartement":"18","codeRegion":"24","codesPostaux":["18140"],"population":344},"geometry":{"type":"Point","coordinates":[2.9294764695863753,47.08983878102192]}},{"type":"Feature","properties":{"nom":"Presly","code":"18185","codeDepartement":"18","codeRegion":"24","codesPostaux":["18380"],"population":263},"geometry":{"type":"Point","coordinates":[2.3374141805555557,47.38338213888884]}},{"type":"Feature","properties":{"nom":"Preuilly","code":"18186","codeDepartement":"18","codeRegion":"24","codesPostaux":["18120"],"population":446},"geometry":{"type":"Point","coordinates":[2.1625441758793964,47.09378162562813]}},{"type":"Feature","properties":{"nom":"Préveranges","code":"18187","codeDepartement":"18","codeRegion":"24","codesPostaux":["18370"],"population":530},"geometry":{"type":"Point","coordinates":[2.2516719897435915,46.45085652991452]}},{"type":"Feature","properties":{"nom":"Primelles","code":"18188","codeDepartement":"18","codeRegion":"24","codesPostaux":["18400"],"population":248},"geometry":{"type":"Point","coordinates":[2.202127733668343,46.91032135175879]}},{"type":"Feature","properties":{"nom":"Quantilly","code":"18189","codeDepartement":"18","codeRegion":"24","codesPostaux":["18110"],"population":466},"geometry":{"type":"Point","coordinates":[2.443791270096464,47.232081315112524]}},{"type":"Feature","properties":{"nom":"Quincy","code":"18190","codeDepartement":"18","codeRegion":"24","codesPostaux":["18120"],"population":866},"geometry":{"type":"Point","coordinates":[2.1560762857142843,47.12600792717089]}},{"type":"Feature","properties":{"nom":"Raymond","code":"18191","codeDepartement":"18","codeRegion":"24","codesPostaux":["18130"],"population":209},"geometry":{"type":"Point","coordinates":[2.6932281340206186,46.970098041237094]}},{"type":"Feature","properties":{"nom":"Reigny","code":"18192","codeDepartement":"18","codeRegion":"24","codesPostaux":["18270"],"population":264},"geometry":{"type":"Point","coordinates":[2.349588310829819,46.588566877637184]}},{"type":"Feature","properties":{"nom":"Rezay","code":"18193","codeDepartement":"18","codeRegion":"24","codesPostaux":["18170"],"population":220},"geometry":{"type":"Point","coordinates":[2.161748255269319,46.67354423185011]}},{"type":"Feature","properties":{"nom":"Rians","code":"18194","codeDepartement":"18","codeRegion":"24","codesPostaux":["18220"],"population":980},"geometry":{"type":"Point","coordinates":[2.6120848518518516,47.1851579191919]}},{"type":"Feature","properties":{"nom":"Sagonne","code":"18195","codeDepartement":"18","codeRegion":"24","codesPostaux":["18600"],"population":186},"geometry":{"type":"Point","coordinates":[2.824075401294499,46.862115003236255]}},{"type":"Feature","properties":{"nom":"Saint-Aignan-des-Noyers","code":"18196","codeDepartement":"18","codeRegion":"24","codesPostaux":["18600"],"population":99},"geometry":{"type":"Point","coordinates":[2.828124180094788,46.7524368199052]}},{"type":"Feature","properties":{"nom":"Saint-Amand-Montrond","code":"18197","codeDepartement":"18","codeRegion":"24","codesPostaux":["18200"],"population":9830},"geometry":{"type":"Point","coordinates":[2.516873296442686,46.72649298221342]}},{"type":"Feature","properties":{"nom":"Saint-Ambroix","code":"18198","codeDepartement":"18","codeRegion":"24","codesPostaux":["18290"],"population":369},"geometry":{"type":"Point","coordinates":[2.1444009068493157,46.935961846575324]}},{"type":"Feature","properties":{"nom":"Saint-Baudel","code":"18199","codeDepartement":"18","codeRegion":"24","codesPostaux":["18160"],"population":248},"geometry":{"type":"Point","coordinates":[2.2050261505791493,46.85174536679532]}},{"type":"Feature","properties":{"nom":"Saint-Bouize","code":"18200","codeDepartement":"18","codeRegion":"24","codesPostaux":["18300"],"population":312},"geometry":{"type":"Point","coordinates":[2.892408117318435,47.26493102234639]}},{"type":"Feature","properties":{"nom":"Saint-Caprais","code":"18201","codeDepartement":"18","codeRegion":"24","codesPostaux":["18400"],"population":770},"geometry":{"type":"Point","coordinates":[2.292370483720931,46.96898885116279]}},{"type":"Feature","properties":{"nom":"Saint-Céols","code":"18202","codeDepartement":"18","codeRegion":"24","codesPostaux":["18220"],"population":15},"geometry":{"type":"Point","coordinates":[2.6347706346153856,47.215860288461535]}},{"type":"Feature","properties":{"nom":"Saint-Christophe-le-Chaudry","code":"18203","codeDepartement":"18","codeRegion":"24","codesPostaux":["18270"],"population":105},"geometry":{"type":"Point","coordinates":[2.3769730429338103,46.588374137745944]}},{"type":"Feature","properties":{"nom":"Saint-Denis-de-Palin","code":"18204","codeDepartement":"18","codeRegion":"24","codesPostaux":["18130"],"population":315},"geometry":{"type":"Point","coordinates":[2.515875304216868,46.93864253012047]}},{"type":"Feature","properties":{"nom":"Saint-Doulchard","code":"18205","codeDepartement":"18","codeRegion":"24","codesPostaux":["18230"],"population":9486},"geometry":{"type":"Point","coordinates":[2.3549615378590083,47.10212941775457]}},{"type":"Feature","properties":{"nom":"Saint-Éloy-de-Gy","code":"18206","codeDepartement":"18","codeRegion":"24","codesPostaux":["18110"],"population":1544},"geometry":{"type":"Point","coordinates":[2.329299815668203,47.168556343317945]}},{"type":"Feature","properties":{"nom":"Saint-Florent-sur-Cher","code":"18207","codeDepartement":"18","codeRegion":"24","codesPostaux":["18400"],"population":6618},"geometry":{"type":"Point","coordinates":[2.2587966161616166,46.99080844949496]}},{"type":"Feature","properties":{"nom":"Sainte-Gemme-en-Sancerrois","code":"18208","codeDepartement":"18","codeRegion":"24","codesPostaux":["18240"],"population":435},"geometry":{"type":"Point","coordinates":[2.814718505555557,47.39474173333337]}},{"type":"Feature","properties":{"nom":"Saint-Georges-de-Poisieux","code":"18209","codeDepartement":"18","codeRegion":"24","codesPostaux":["18200"],"population":457},"geometry":{"type":"Point","coordinates":[2.4787889575070845,46.68164673087819]}},{"type":"Feature","properties":{"nom":"Saint-Georges-sur-la-Prée","code":"18210","codeDepartement":"18","codeRegion":"24","codesPostaux":["18100"],"population":625},"geometry":{"type":"Point","coordinates":[1.9568746914285708,47.223316925714286]}},{"type":"Feature","properties":{"nom":"Saint-Georges-sur-Moulon","code":"18211","codeDepartement":"18","codeRegion":"24","codesPostaux":["18110"],"population":701},"geometry":{"type":"Point","coordinates":[2.4179806057441247,47.182924780678825]}},{"type":"Feature","properties":{"nom":"Saint-Germain-des-Bois","code":"18212","codeDepartement":"18","codeRegion":"24","codesPostaux":["18340"],"population":626},"geometry":{"type":"Point","coordinates":[2.4401405818181825,46.890420039999995]}},{"type":"Feature","properties":{"nom":"Saint-Germain-du-Puy","code":"18213","codeDepartement":"18","codeRegion":"24","codesPostaux":["18390","18000"],"population":5081},"geometry":{"type":"Point","coordinates":[2.481170563467494,47.10735124148606]}},{"type":"Feature","properties":{"nom":"Saint-Hilaire-de-Court","code":"18214","codeDepartement":"18","codeRegion":"24","codesPostaux":["18100"],"population":605},"geometry":{"type":"Point","coordinates":[2.0065063366336644,47.20540599009902]}},{"type":"Feature","properties":{"nom":"Saint-Hilaire-de-Gondilly","code":"18215","codeDepartement":"18","codeRegion":"24","codesPostaux":["18320"],"population":176},"geometry":{"type":"Point","coordinates":[2.9025829055118098,47.02838591076118]}},{"type":"Feature","properties":{"nom":"Saint-Hilaire-en-Lignières","code":"18216","codeDepartement":"18","codeRegion":"24","codesPostaux":["18160"],"population":503},"geometry":{"type":"Point","coordinates":[2.125816291139238,46.741559308016804]}},{"type":"Feature","properties":{"nom":"Saint-Jeanvrin","code":"18217","codeDepartement":"18","codeRegion":"24","codesPostaux":["18370"],"population":154},"geometry":{"type":"Point","coordinates":[2.244429662768032,46.59638464717351]}},{"type":"Feature","properties":{"nom":"Saint-Just","code":"18218","codeDepartement":"18","codeRegion":"24","codesPostaux":["18340"],"population":639},"geometry":{"type":"Point","coordinates":[2.497876125874125,46.98031169230769]}},{"type":"Feature","properties":{"nom":"Saint-Laurent","code":"18219","codeDepartement":"18","codeRegion":"24","codesPostaux":["18330"],"population":498},"geometry":{"type":"Point","coordinates":[2.2129074329268286,47.23469200813004]}},{"type":"Feature","properties":{"nom":"Saint-Léger-le-Petit","code":"18220","codeDepartement":"18","codeRegion":"24","codesPostaux":["18140"],"population":357},"geometry":{"type":"Point","coordinates":[2.9898886811594205,47.1161012173913]}},{"type":"Feature","properties":{"nom":"Saint-Loup-des-Chaumes","code":"18221","codeDepartement":"18","codeRegion":"24","codesPostaux":["18190"],"population":301},"geometry":{"type":"Point","coordinates":[2.3598815,46.82140736746986]}},{"type":"Feature","properties":{"nom":"Saint-Martin-d'Auxigny","code":"18223","codeDepartement":"18","codeRegion":"24","codesPostaux":["18110"],"population":2369},"geometry":{"type":"Point","coordinates":[2.3915621643835623,47.20319282739727]}},{"type":"Feature","properties":{"nom":"Saint-Martin-des-Champs","code":"18224","codeDepartement":"18","codeRegion":"24","codesPostaux":["18140"],"population":306},"geometry":{"type":"Point","coordinates":[2.926567649797573,47.16891990688261]}},{"type":"Feature","properties":{"nom":"Saint-Maur","code":"18225","codeDepartement":"18","codeRegion":"24","codesPostaux":["18270"],"population":289},"geometry":{"type":"Point","coordinates":[2.283344387850466,46.57658516510908]}},{"type":"Feature","properties":{"nom":"Saint-Michel-de-Volangis","code":"18226","codeDepartement":"18","codeRegion":"24","codesPostaux":["18390"],"population":476},"geometry":{"type":"Point","coordinates":[2.4766272649572647,47.13948344871798]}},{"type":"Feature","properties":{"nom":"Sainte-Montaine","code":"18227","codeDepartement":"18","codeRegion":"24","codesPostaux":["18700"],"population":183},"geometry":{"type":"Point","coordinates":[2.32749322463768,47.50575560869568]}},{"type":"Feature","properties":{"nom":"Saint-Outrille","code":"18228","codeDepartement":"18","codeRegion":"24","codesPostaux":["18310"],"population":215},"geometry":{"type":"Point","coordinates":[1.8146892386831273,47.147080481481474]}},{"type":"Feature","properties":{"nom":"Saint-Palais","code":"18229","codeDepartement":"18","codeRegion":"24","codesPostaux":["18110"],"population":623},"geometry":{"type":"Point","coordinates":[2.417132531250001,47.24342773958338]}},{"type":"Feature","properties":{"nom":"Saint-Pierre-les-Bois","code":"18230","codeDepartement":"18","codeRegion":"24","codesPostaux":["18170"],"population":292},"geometry":{"type":"Point","coordinates":[2.2831604885714287,46.67256370571425]}},{"type":"Feature","properties":{"nom":"Saint-Pierre-les-Étieux","code":"18231","codeDepartement":"18","codeRegion":"24","codesPostaux":["18210"],"population":695},"geometry":{"type":"Point","coordinates":[2.5914988784194546,46.73199443768996]}},{"type":"Feature","properties":{"nom":"Saint-Priest-la-Marche","code":"18232","codeDepartement":"18","codeRegion":"24","codesPostaux":["18370"],"population":224},"geometry":{"type":"Point","coordinates":[2.1826358995098056,46.44951579411763]}},{"type":"Feature","properties":{"nom":"Saint-Satur","code":"18233","codeDepartement":"18","codeRegion":"24","codesPostaux":["18300"],"population":1432},"geometry":{"type":"Point","coordinates":[2.8488317916666657,47.34899215000001]}},{"type":"Feature","properties":{"nom":"Saint-Saturnin","code":"18234","codeDepartement":"18","codeRegion":"24","codesPostaux":["18370"],"population":420},"geometry":{"type":"Point","coordinates":[2.2386932511111093,46.50545362444445]}},{"type":"Feature","properties":{"nom":"Sainte-Solange","code":"18235","codeDepartement":"18","codeRegion":"24","codesPostaux":["18220"],"population":1145},"geometry":{"type":"Point","coordinates":[2.548661791666667,47.14636095833334]}},{"type":"Feature","properties":{"nom":"Saint-Symphorien","code":"18236","codeDepartement":"18","codeRegion":"24","codesPostaux":["18190"],"population":134},"geometry":{"type":"Point","coordinates":[2.2966468898305097,46.81168780508473]}},{"type":"Feature","properties":{"nom":"Sainte-Thorette","code":"18237","codeDepartement":"18","codeRegion":"24","codesPostaux":["18500"],"population":477},"geometry":{"type":"Point","coordinates":[2.1925586477024064,47.07419731728665]}},{"type":"Feature","properties":{"nom":"Saint-Vitte","code":"18238","codeDepartement":"18","codeRegion":"24","codesPostaux":["18360"],"population":132},"geometry":{"type":"Point","coordinates":[2.5316832197802204,46.53815593040296]}},{"type":"Feature","properties":{"nom":"Sancergues","code":"18240","codeDepartement":"18","codeRegion":"24","codesPostaux":["18140"],"population":664},"geometry":{"type":"Point","coordinates":[2.906746484902312,47.164073740674965]}},{"type":"Feature","properties":{"nom":"Sancerre","code":"18241","codeDepartement":"18","codeRegion":"24","codesPostaux":["18300"],"population":1409},"geometry":{"type":"Point","coordinates":[2.8250986415929193,47.328965654867254]}},{"type":"Feature","properties":{"nom":"Sancoins","code":"18242","codeDepartement":"18","codeRegion":"24","codesPostaux":["18600"],"population":3090},"geometry":{"type":"Point","coordinates":[2.9098155680751145,46.8183738748044]}},{"type":"Feature","properties":{"nom":"Santranges","code":"18243","codeDepartement":"18","codeRegion":"24","codesPostaux":["18240"],"population":413},"geometry":{"type":"Point","coordinates":[2.7558484655963302,47.507867713302744]}},{"type":"Feature","properties":{"nom":"Saugy","code":"18244","codeDepartement":"18","codeRegion":"24","codesPostaux":["18290"],"population":80},"geometry":{"type":"Point","coordinates":[2.1159481801242235,46.963617950310564]}},{"type":"Feature","properties":{"nom":"Saulzais-le-Potier","code":"18245","codeDepartement":"18","codeRegion":"24","codesPostaux":["18360"],"population":499},"geometry":{"type":"Point","coordinates":[2.4969561093749992,46.59698734374998]}},{"type":"Feature","properties":{"nom":"Savigny-en-Sancerre","code":"18246","codeDepartement":"18","codeRegion":"24","codesPostaux":["18240"],"population":991},"geometry":{"type":"Point","coordinates":[2.790651368421052,47.446406947368416]}},{"type":"Feature","properties":{"nom":"Savigny-en-Septaine","code":"18247","codeDepartement":"18","codeRegion":"24","codesPostaux":["18390"],"population":704},"geometry":{"type":"Point","coordinates":[2.5736272441860466,47.045588395348815]}},{"type":"Feature","properties":{"nom":"Senneçay","code":"18248","codeDepartement":"18","codeRegion":"24","codesPostaux":["18340"],"population":467},"geometry":{"type":"Point","coordinates":[2.447521141666665,46.95837968333333]}},{"type":"Feature","properties":{"nom":"Sens-Beaujeu","code":"18249","codeDepartement":"18","codeRegion":"24","codesPostaux":["18300"],"population":398},"geometry":{"type":"Point","coordinates":[2.683391391799545,47.33534895899771]}},{"type":"Feature","properties":{"nom":"Serruelles","code":"18250","codeDepartement":"18","codeRegion":"24","codesPostaux":["18190"],"population":78},"geometry":{"type":"Point","coordinates":[2.3835679567901242,46.88629998765435]}},{"type":"Feature","properties":{"nom":"Sévry","code":"18251","codeDepartement":"18","codeRegion":"24","codesPostaux":["18140"],"population":68},"geometry":{"type":"Point","coordinates":[2.824046166666667,47.13423821839079]}},{"type":"Feature","properties":{"nom":"Sidiailles","code":"18252","codeDepartement":"18","codeRegion":"24","codesPostaux":["18270"],"population":304},"geometry":{"type":"Point","coordinates":[2.3187694463894943,46.49918092122539]}},{"type":"Feature","properties":{"nom":"Soulangis","code":"18253","codeDepartement":"18","codeRegion":"24","codesPostaux":["18220"],"population":485},"geometry":{"type":"Point","coordinates":[2.5134171834862378,47.175066174311915]}},{"type":"Feature","properties":{"nom":"Soye-en-Septaine","code":"18254","codeDepartement":"18","codeRegion":"24","codesPostaux":["18340"],"population":581},"geometry":{"type":"Point","coordinates":[2.478656461538461,47.032876538461544]}},{"type":"Feature","properties":{"nom":"Le Subdray","code":"18255","codeDepartement":"18","codeRegion":"24","codesPostaux":["18570"],"population":942},"geometry":{"type":"Point","coordinates":[2.3082609789915978,47.01664356722688]}},{"type":"Feature","properties":{"nom":"Subligny","code":"18256","codeDepartement":"18","codeRegion":"24","codesPostaux":["18260"],"population":343},"geometry":{"type":"Point","coordinates":[2.7404864024024014,47.394298954954955]}},{"type":"Feature","properties":{"nom":"Sury-près-Léré","code":"18257","codeDepartement":"18","codeRegion":"24","codesPostaux":["18240"],"population":697},"geometry":{"type":"Point","coordinates":[2.840232885245901,47.484562229508185]}},{"type":"Feature","properties":{"nom":"Sury-en-Vaux","code":"18258","codeDepartement":"18","codeRegion":"24","codesPostaux":["18300"],"population":708},"geometry":{"type":"Point","coordinates":[2.7998396506849326,47.37422931164382]}},{"type":"Feature","properties":{"nom":"Sury-ès-Bois","code":"18259","codeDepartement":"18","codeRegion":"24","codesPostaux":["18260"],"population":264},"geometry":{"type":"Point","coordinates":[2.708712595744682,47.46271209118537]}},{"type":"Feature","properties":{"nom":"Tendron","code":"18260","codeDepartement":"18","codeRegion":"24","codesPostaux":["18350"],"population":95},"geometry":{"type":"Point","coordinates":[2.821707144385028,46.979669385026746]}},{"type":"Feature","properties":{"nom":"Thaumiers","code":"18261","codeDepartement":"18","codeRegion":"24","codesPostaux":["18210"],"population":416},"geometry":{"type":"Point","coordinates":[2.66701259833795,46.81570344044317]}},{"type":"Feature","properties":{"nom":"Thauvenay","code":"18262","codeDepartement":"18","codeRegion":"24","codesPostaux":["18300"],"population":335},"geometry":{"type":"Point","coordinates":[2.8716214375000004,47.2985128046875]}},{"type":"Feature","properties":{"nom":"Thénioux","code":"18263","codeDepartement":"18","codeRegion":"24","codesPostaux":["18100"],"population":667},"geometry":{"type":"Point","coordinates":[1.9481749688888885,47.257450986666655]}},{"type":"Feature","properties":{"nom":"Thou","code":"18264","codeDepartement":"18","codeRegion":"24","codesPostaux":["18260"],"population":76},"geometry":{"type":"Point","coordinates":[2.66704163772455,47.4187560928144]}},{"type":"Feature","properties":{"nom":"Torteron","code":"18265","codeDepartement":"18","codeRegion":"24","codesPostaux":["18320"],"population":800},"geometry":{"type":"Point","coordinates":[2.981270521885523,47.00540074410774]}},{"type":"Feature","properties":{"nom":"Touchay","code":"18266","codeDepartement":"18","codeRegion":"24","codesPostaux":["18160"],"population":261},"geometry":{"type":"Point","coordinates":[2.2054996902654853,46.715731185840724]}},{"type":"Feature","properties":{"nom":"Trouy","code":"18267","codeDepartement":"18","codeRegion":"24","codesPostaux":["18570"],"population":3966},"geometry":{"type":"Point","coordinates":[2.3623123631578924,47.01680239999998]}},{"type":"Feature","properties":{"nom":"Uzay-le-Venon","code":"18268","codeDepartement":"18","codeRegion":"24","codesPostaux":["18190"],"population":399},"geometry":{"type":"Point","coordinates":[2.4628293883928576,46.82304959821426]}},{"type":"Feature","properties":{"nom":"Vailly-sur-Sauldre","code":"18269","codeDepartement":"18","codeRegion":"24","codesPostaux":["18260"],"population":662},"geometry":{"type":"Point","coordinates":[2.645955819951338,47.45392431143552]}},{"type":"Feature","properties":{"nom":"Vallenay","code":"18270","codeDepartement":"18","codeRegion":"24","codesPostaux":["18190"],"population":740},"geometry":{"type":"Point","coordinates":[2.3749002204081626,46.77260429387751]}},{"type":"Feature","properties":{"nom":"Vasselay","code":"18271","codeDepartement":"18","codeRegion":"24","codesPostaux":["18110"],"population":1420},"geometry":{"type":"Point","coordinates":[2.389945621052633,47.16228137263159]}},{"type":"Feature","properties":{"nom":"Veaugues","code":"18272","codeDepartement":"18","codeRegion":"24","codesPostaux":["18300"],"population":654},"geometry":{"type":"Point","coordinates":[2.743856904942965,47.26495879847906]}},{"type":"Feature","properties":{"nom":"Venesmes","code":"18273","codeDepartement":"18","codeRegion":"24","codesPostaux":["18190"],"population":823},"geometry":{"type":"Point","coordinates":[2.293667084175082,46.840750612794615]}},{"type":"Feature","properties":{"nom":"Verdigny","code":"18274","codeDepartement":"18","codeRegion":"24","codesPostaux":["18300"],"population":312},"geometry":{"type":"Point","coordinates":[2.809130652173913,47.34791315652177]}},{"type":"Feature","properties":{"nom":"Vereaux","code":"18275","codeDepartement":"18","codeRegion":"24","codesPostaux":["18600"],"population":139},"geometry":{"type":"Point","coordinates":[2.872897358208956,46.87468565671647]}},{"type":"Feature","properties":{"nom":"Vernais","code":"18276","codeDepartement":"18","codeRegion":"24","codesPostaux":["18210"],"population":196},"geometry":{"type":"Point","coordinates":[2.7035874068241483,46.769358669291314]}},{"type":"Feature","properties":{"nom":"Verneuil","code":"18277","codeDepartement":"18","codeRegion":"24","codesPostaux":["18210"],"population":34},"geometry":{"type":"Point","coordinates":[2.597071756613756,46.82218785185185]}},{"type":"Feature","properties":{"nom":"Vesdun","code":"18278","codeDepartement":"18","codeRegion":"24","codesPostaux":["18360"],"population":575},"geometry":{"type":"Point","coordinates":[2.4258565794621023,46.555041332518364]}},{"type":"Feature","properties":{"nom":"Vierzon","code":"18279","codeDepartement":"18","codeRegion":"24","codesPostaux":["18100"],"population":26365},"geometry":{"type":"Point","coordinates":[2.0737028200371053,47.22047899814471]}},{"type":"Feature","properties":{"nom":"Vignoux-sous-les-Aix","code":"18280","codeDepartement":"18","codeRegion":"24","codesPostaux":["18110"],"population":712},"geometry":{"type":"Point","coordinates":[2.4635763179723487,47.18444947465439]}},{"type":"Feature","properties":{"nom":"Vignoux-sur-Barangeon","code":"18281","codeDepartement":"18","codeRegion":"24","codesPostaux":["18500"],"population":2130},"geometry":{"type":"Point","coordinates":[2.1807481306901617,47.20348572687228]}},{"type":"Feature","properties":{"nom":"Villabon","code":"18282","codeDepartement":"18","codeRegion":"24","codesPostaux":["18800"],"population":570},"geometry":{"type":"Point","coordinates":[2.6778309130434796,47.11465945962732]}},{"type":"Feature","properties":{"nom":"Villecelin","code":"18283","codeDepartement":"18","codeRegion":"24","codesPostaux":["18160"],"population":99},"geometry":{"type":"Point","coordinates":[2.1996658235294118,46.821127800905]}},{"type":"Feature","properties":{"nom":"Villegenon","code":"18284","codeDepartement":"18","codeRegion":"24","codesPostaux":["18260"],"population":219},"geometry":{"type":"Point","coordinates":[2.6088643375314855,47.419895046599514]}},{"type":"Feature","properties":{"nom":"Villeneuve-sur-Cher","code":"18285","codeDepartement":"18","codeRegion":"24","codesPostaux":["18400"],"population":464},"geometry":{"type":"Point","coordinates":[2.2114906550522635,47.03336152613241]}},{"type":"Feature","properties":{"nom":"Villequiers","code":"18286","codeDepartement":"18","codeRegion":"24","codesPostaux":["18800"],"population":483},"geometry":{"type":"Point","coordinates":[2.8041185916955036,47.07665287889271]}},{"type":"Feature","properties":{"nom":"Vinon","code":"18287","codeDepartement":"18","codeRegion":"24","codesPostaux":["18300"],"population":302},"geometry":{"type":"Point","coordinates":[2.8354150791366903,47.282384251798554]}},{"type":"Feature","properties":{"nom":"Vorly","code":"18288","codeDepartement":"18","codeRegion":"24","codesPostaux":["18340"],"population":235},"geometry":{"type":"Point","coordinates":[2.4725212750000005,46.939535058333334]}},{"type":"Feature","properties":{"nom":"Vornay","code":"18289","codeDepartement":"18","codeRegion":"24","codesPostaux":["18130"],"population":595},"geometry":{"type":"Point","coordinates":[2.5907394621212116,46.97085650757577]}},{"type":"Feature","properties":{"nom":"Vouzeron","code":"18290","codeDepartement":"18","codeRegion":"24","codesPostaux":["18330"],"population":560},"geometry":{"type":"Point","coordinates":[2.217280174736841,47.265094886315744]}}]}