{"type":"FeatureCollection","features":[{"type":"Feature","properties":{"nom":"Ahun","code":"23001","codeDepartement":"23","codeRegion":"75","codesPostaux":["23150"],"population":1438},"geometry":{"type":"Point","coordinates":[2.0248301703703686,46.088231610582]}},{"type":"Feature","properties":{"nom":"Ajain","code":"23002","codeDepartement":"23","codeRegion":"75","codesPostaux":["23380"],"population":1135},"geometry":{"type":"Point","coordinates":[1.994685874867444,46.21102374655353]}},{"type":"Feature","properties":{"nom":"Alleyrat","code":"23003","codeDepartement":"23","codeRegion":"75","codesPostaux":["23200"],"population":144},"geometry":{"type":"Point","coordinates":[2.1526940527472513,45.98619622417585]}},{"type":"Feature","properties":{"nom":"Anzême","code":"23004","codeDepartement":"23","codeRegion":"75","codesPostaux":["23000"],"population":577},"geometry":{"type":"Point","coordinates":[1.8465037110141767,46.254572218102616]}},{"type":"Feature","properties":{"nom":"Arfeuille-Châtain","code":"23005","codeDepartement":"23","codeRegion":"75","codesPostaux":["23700"],"population":187},"geometry":{"type":"Point","coordinates":[2.4347217198142426,46.0606515108359]}},{"type":"Feature","properties":{"nom":"Arrènes","code":"23006","codeDepartement":"23","codeRegion":"75","codesPostaux":["23210"],"population":221},"geometry":{"type":"Point","coordinates":[1.5644110549199095,46.071301029748355]}},{"type":"Feature","properties":{"nom":"Ars","code":"23007","codeDepartement":"23","codeRegion":"75","codesPostaux":["23480"],"population":251},"geometry":{"type":"Point","coordinates":[2.0867120757575752,46.00247794065657]}},{"type":"Feature","properties":{"nom":"Aubusson","code":"23008","codeDepartement":"23","codeRegion":"75","codesPostaux":["23200"],"population":3400},"geometry":{"type":"Point","coordinates":[2.1700525355504587,45.95286636467886]}},{"type":"Feature","properties":{"nom":"Auge","code":"23009","codeDepartement":"23","codeRegion":"75","codesPostaux":["23170"],"population":100},"geometry":{"type":"Point","coordinates":[2.337310186588918,46.23904925072885]}},{"type":"Feature","properties":{"nom":"Augères","code":"23010","codeDepartement":"23","codeRegion":"75","codesPostaux":["23210"],"population":119},"geometry":{"type":"Point","coordinates":[1.725905711382113,46.080454978319715]}},{"type":"Feature","properties":{"nom":"Aulon","code":"23011","codeDepartement":"23","codeRegion":"75","codesPostaux":["23210"],"population":156},"geometry":{"type":"Point","coordinates":[1.6986960058997052,46.09028668289089]}},{"type":"Feature","properties":{"nom":"Auriat","code":"23012","codeDepartement":"23","codeRegion":"75","codesPostaux":["23400"],"population":110},"geometry":{"type":"Point","coordinates":[1.6325491621621622,45.87525957972972]}},{"type":"Feature","properties":{"nom":"Auzances","code":"23013","codeDepartement":"23","codeRegion":"75","codesPostaux":["23700"],"population":1239},"geometry":{"type":"Point","coordinates":[2.5019895208747545,46.02353329224652]}},{"type":"Feature","properties":{"nom":"Azat-Châtenet","code":"23014","codeDepartement":"23","codeRegion":"75","codesPostaux":["23210"],"population":110},"geometry":{"type":"Point","coordinates":[1.770760433566435,46.084933999999976]}},{"type":"Feature","properties":{"nom":"Azerables","code":"23015","codeDepartement":"23","codeRegion":"75","codesPostaux":["23160"],"population":816},"geometry":{"type":"Point","coordinates":[1.471797332050051,46.34782738402314]}},{"type":"Feature","properties":{"nom":"Banize","code":"23016","codeDepartement":"23","codeRegion":"75","codesPostaux":["23120"],"population":189},"geometry":{"type":"Point","coordinates":[1.9892273281249986,45.93320788715282]}},{"type":"Feature","properties":{"nom":"Basville","code":"23017","codeDepartement":"23","codeRegion":"75","codesPostaux":["23260"],"population":161},"geometry":{"type":"Point","coordinates":[2.411888555878084,45.86026152394776]}},{"type":"Feature","properties":{"nom":"Bazelat","code":"23018","codeDepartement":"23","codeRegion":"75","codesPostaux":["23160"],"population":265},"geometry":{"type":"Point","coordinates":[1.5287486477987442,46.3523024198113]}},{"type":"Feature","properties":{"nom":"Beissat","code":"23019","codeDepartement":"23","codeRegion":"75","codesPostaux":["23260"],"population":25},"geometry":{"type":"Point","coordinates":[2.2873856584766563,45.771518012285036]}},{"type":"Feature","properties":{"nom":"Bellegarde-en-Marche","code":"23020","codeDepartement":"23","codeRegion":"75","codesPostaux":["23190"],"population":408},"geometry":{"type":"Point","coordinates":[2.293874122448979,45.98215519727892]}},{"type":"Feature","properties":{"nom":"Bénévent-l'Abbaye","code":"23021","codeDepartement":"23","codeRegion":"75","codesPostaux":["23210"],"population":797},"geometry":{"type":"Point","coordinates":[1.6347944955223885,46.11570542388059]}},{"type":"Feature","properties":{"nom":"Bétête","code":"23022","codeDepartement":"23","codeRegion":"75","codesPostaux":["23270"],"population":364},"geometry":{"type":"Point","coordinates":[2.063459998230088,46.362836200000004]}},{"type":"Feature","properties":{"nom":"Blaudeix","code":"23023","codeDepartement":"23","codeRegion":"75","codesPostaux":["23140"],"population":96},"geometry":{"type":"Point","coordinates":[2.0852522444933927,46.22832011894269]}},{"type":"Feature","properties":{"nom":"Blessac","code":"23024","codeDepartement":"23","codeRegion":"75","codesPostaux":["23200"],"population":534},"geometry":{"type":"Point","coordinates":[2.1151562113910174,45.96829031653887]}},{"type":"Feature","properties":{"nom":"Bonnat","code":"23025","codeDepartement":"23","codeRegion":"75","codesPostaux":["23220"],"population":1302},"geometry":{"type":"Point","coordinates":[1.9146159701327419,46.322977882743366]}},{"type":"Feature","properties":{"nom":"Bord-Saint-Georges","code":"23026","codeDepartement":"23","codeRegion":"75","codesPostaux":["23230"],"population":354},"geometry":{"type":"Point","coordinates":[2.2845466058394135,46.25245956350359]}},{"type":"Feature","properties":{"nom":"Bosmoreau-les-Mines","code":"23027","codeDepartement":"23","codeRegion":"75","codesPostaux":["23400"],"population":249},"geometry":{"type":"Point","coordinates":[1.7525137456140358,46.00260398464913]}},{"type":"Feature","properties":{"nom":"Bosroger","code":"23028","codeDepartement":"23","codeRegion":"75","codesPostaux":["23200"],"population":111},"geometry":{"type":"Point","coordinates":[2.2498844424778786,46.00503331194693]}},{"type":"Feature","properties":{"nom":"Le Bourg-d'Hem","code":"23029","codeDepartement":"23","codeRegion":"75","codesPostaux":["23220"],"population":209},"geometry":{"type":"Point","coordinates":[1.8401718497942394,46.29897786419748]}},{"type":"Feature","properties":{"nom":"Bourganeuf","code":"23030","codeDepartement":"23","codeRegion":"75","codesPostaux":["23400"],"population":2656},"geometry":{"type":"Point","coordinates":[1.7493425973072223,45.95078992533658]}},{"type":"Feature","properties":{"nom":"Boussac","code":"23031","codeDepartement":"23","codeRegion":"75","codesPostaux":["23600"],"population":1267},"geometry":{"type":"Point","coordinates":[2.221431133333332,46.34747441777779]}},{"type":"Feature","properties":{"nom":"Boussac-Bourg","code":"23032","codeDepartement":"23","codeRegion":"75","codesPostaux":["23600"],"population":732},"geometry":{"type":"Point","coordinates":[2.215755117647061,46.36477718648311]}},{"type":"Feature","properties":{"nom":"La Brionne","code":"23033","codeDepartement":"23","codeRegion":"75","codesPostaux":["23000"],"population":438},"geometry":{"type":"Point","coordinates":[1.7925987932816543,46.164786260981955]}},{"type":"Feature","properties":{"nom":"Brousse","code":"23034","codeDepartement":"23","codeRegion":"75","codesPostaux":["23700"],"population":27},"geometry":{"type":"Point","coordinates":[2.453108911214954,45.97270747196261]}},{"type":"Feature","properties":{"nom":"Budelière","code":"23035","codeDepartement":"23","codeRegion":"75","codesPostaux":["23170"],"population":733},"geometry":{"type":"Point","coordinates":[2.4718679010043014,46.2203546757532]}},{"type":"Feature","properties":{"nom":"Bussière-Dunoise","code":"23036","codeDepartement":"23","codeRegion":"75","codesPostaux":["23320"],"population":1041},"geometry":{"type":"Point","coordinates":[1.7549426708542677,46.2533101750418]}},{"type":"Feature","properties":{"nom":"Bussière-Nouvelle","code":"23037","codeDepartement":"23","codeRegion":"75","codesPostaux":["23700"],"population":91},"geometry":{"type":"Point","coordinates":[2.418553909297052,46.013456269841306]}},{"type":"Feature","properties":{"nom":"Bussière-Saint-Georges","code":"23038","codeDepartement":"23","codeRegion":"75","codesPostaux":["23600"],"population":255},"geometry":{"type":"Point","coordinates":[2.1542525010309275,46.39963668865978]}},{"type":"Feature","properties":{"nom":"La Celle-Dunoise","code":"23039","codeDepartement":"23","codeRegion":"75","codesPostaux":["23800"],"population":543},"geometry":{"type":"Point","coordinates":[1.779816040909091,46.30946767878795]}},{"type":"Feature","properties":{"nom":"La Celle-sous-Gouzon","code":"23040","codeDepartement":"23","codeRegion":"75","codesPostaux":["23230"],"population":149},"geometry":{"type":"Point","coordinates":[2.2176903967391293,46.223936519021755]}},{"type":"Feature","properties":{"nom":"La Cellette","code":"23041","codeDepartement":"23","codeRegion":"75","codesPostaux":["23350"],"population":262},"geometry":{"type":"Point","coordinates":[2.016986020172911,46.39599580979829]}},{"type":"Feature","properties":{"nom":"Ceyroux","code":"23042","codeDepartement":"23","codeRegion":"75","codesPostaux":["23210"],"population":128},"geometry":{"type":"Point","coordinates":[1.665430083676269,46.05977181207131]}},{"type":"Feature","properties":{"nom":"Chamberaud","code":"23043","codeDepartement":"23","codeRegion":"75","codesPostaux":["23480"],"population":102},"geometry":{"type":"Point","coordinates":[2.046122842592594,46.050113370370354]}},{"type":"Feature","properties":{"nom":"Chambon-Sainte-Croix","code":"23044","codeDepartement":"23","codeRegion":"75","codesPostaux":["23220"],"population":76},"geometry":{"type":"Point","coordinates":[1.7738981622641519,46.35632801509437]}},{"type":"Feature","properties":{"nom":"Chambon-sur-Voueize","code":"23045","codeDepartement":"23","codeRegion":"75","codesPostaux":["23170"],"population":911},"geometry":{"type":"Point","coordinates":[2.4167230630434813,46.191872251086984]}},{"type":"Feature","properties":{"nom":"Chambonchard","code":"23046","codeDepartement":"23","codeRegion":"75","codesPostaux":["23110"],"population":82},"geometry":{"type":"Point","coordinates":[2.539482028455284,46.160126485772345]}},{"type":"Feature","properties":{"nom":"Chamborand","code":"23047","codeDepartement":"23","codeRegion":"75","codesPostaux":["23240"],"population":245},"geometry":{"type":"Point","coordinates":[1.573615187500001,46.156495052556835]}},{"type":"Feature","properties":{"nom":"Champagnat","code":"23048","codeDepartement":"23","codeRegion":"75","codesPostaux":["23190"],"population":465},"geometry":{"type":"Point","coordinates":[2.2932034644714014,46.022231538128246]}},{"type":"Feature","properties":{"nom":"Champsanglard","code":"23049","codeDepartement":"23","codeRegion":"75","codesPostaux":["23220"],"population":246},"geometry":{"type":"Point","coordinates":[1.8912498538461535,46.28169158846157]}},{"type":"Feature","properties":{"nom":"La Chapelle-Baloue","code":"23050","codeDepartement":"23","codeRegion":"75","codesPostaux":["23160"],"population":135},"geometry":{"type":"Point","coordinates":[1.5712915962059637,46.35816168834691]}},{"type":"Feature","properties":{"nom":"La Chapelle-Saint-Martial","code":"23051","codeDepartement":"23","codeRegion":"75","codesPostaux":["23250"],"population":96},"geometry":{"type":"Point","coordinates":[1.9197928194444436,46.02694311309521]}},{"type":"Feature","properties":{"nom":"La Chapelle-Taillefert","code":"23052","codeDepartement":"23","codeRegion":"75","codesPostaux":["23000"],"population":419},"geometry":{"type":"Point","coordinates":[1.8288974634146355,46.11375355327339]}},{"type":"Feature","properties":{"nom":"Chard","code":"23053","codeDepartement":"23","codeRegion":"75","codesPostaux":["23700"],"population":206},"geometry":{"type":"Point","coordinates":[2.4892143306772923,45.94955933665337]}},{"type":"Feature","properties":{"nom":"Charron","code":"23054","codeDepartement":"23","codeRegion":"75","codesPostaux":["23700"],"population":230},"geometry":{"type":"Point","coordinates":[2.563054707368419,46.0443092515789]}},{"type":"Feature","properties":{"nom":"Châtelard","code":"23055","codeDepartement":"23","codeRegion":"75","codesPostaux":["23700"],"population":31},"geometry":{"type":"Point","coordinates":[2.468646242718447,45.96432758737865]}},{"type":"Feature","properties":{"nom":"Châtelus-le-Marcheix","code":"23056","codeDepartement":"23","codeRegion":"75","codesPostaux":["23430"],"population":328},"geometry":{"type":"Point","coordinates":[1.6239663915662628,46.00515992670682]}},{"type":"Feature","properties":{"nom":"Châtelus-Malvaleix","code":"23057","codeDepartement":"23","codeRegion":"75","codesPostaux":["23270"],"population":569},"geometry":{"type":"Point","coordinates":[2.029507545454546,46.29987065217394]}},{"type":"Feature","properties":{"nom":"Le Chauchet","code":"23058","codeDepartement":"23","codeRegion":"75","codesPostaux":["23130"],"population":109},"geometry":{"type":"Point","coordinates":[2.328131045669292,46.109612244094464]}},{"type":"Feature","properties":{"nom":"La Chaussade","code":"23059","codeDepartement":"23","codeRegion":"75","codesPostaux":["23200"],"population":111},"geometry":{"type":"Point","coordinates":[2.2532270213089793,45.98567962100453]}},{"type":"Feature","properties":{"nom":"Chavanat","code":"23060","codeDepartement":"23","codeRegion":"75","codesPostaux":["23250"],"population":143},"geometry":{"type":"Point","coordinates":[1.9622852657743761,45.94815148565963]}},{"type":"Feature","properties":{"nom":"Chénérailles","code":"23061","codeDepartement":"23","codeRegion":"75","codesPostaux":["23130"],"population":763},"geometry":{"type":"Point","coordinates":[2.1688821601208477,46.113224993957694]}},{"type":"Feature","properties":{"nom":"Chéniers","code":"23062","codeDepartement":"23","codeRegion":"75","codesPostaux":["23220"],"population":578},"geometry":{"type":"Point","coordinates":[1.828045151807229,46.35911292891566]}},{"type":"Feature","properties":{"nom":"Clairavaux","code":"23063","codeDepartement":"23","codeRegion":"75","codesPostaux":["23500"],"population":156},"geometry":{"type":"Point","coordinates":[2.1777751428571417,45.780503290372735]}},{"type":"Feature","properties":{"nom":"Clugnat","code":"23064","codeDepartement":"23","codeRegion":"75","codesPostaux":["23270"],"population":648},"geometry":{"type":"Point","coordinates":[2.121230652647978,46.29295257632398]}},{"type":"Feature","properties":{"nom":"Colondannes","code":"23065","codeDepartement":"23","codeRegion":"75","codesPostaux":["23800"],"population":267},"geometry":{"type":"Point","coordinates":[1.6151690085616444,46.28870944178084]}},{"type":"Feature","properties":{"nom":"Le Compas","code":"23066","codeDepartement":"23","codeRegion":"75","codesPostaux":["23700"],"population":221},"geometry":{"type":"Point","coordinates":[2.452575967793882,46.00126034299517]}},{"type":"Feature","properties":{"nom":"La Courtine","code":"23067","codeDepartement":"23","codeRegion":"75","codesPostaux":["23100"],"population":740},"geometry":{"type":"Point","coordinates":[2.2411319862778742,45.731362631217856]}},{"type":"Feature","properties":{"nom":"Cressat","code":"23068","codeDepartement":"23","codeRegion":"75","codesPostaux":["23140"],"population":554},"geometry":{"type":"Point","coordinates":[2.085814109612144,46.1351127993254]}},{"type":"Feature","properties":{"nom":"Crocq","code":"23069","codeDepartement":"23","codeRegion":"75","codesPostaux":["23260"],"population":397},"geometry":{"type":"Point","coordinates":[2.363956023593466,45.85314651542647]}},{"type":"Feature","properties":{"nom":"Crozant","code":"23070","codeDepartement":"23","codeRegion":"75","codesPostaux":["23160"],"population":453},"geometry":{"type":"Point","coordinates":[1.6158858490153178,46.381614263676134]}},{"type":"Feature","properties":{"nom":"Croze","code":"23071","codeDepartement":"23","codeRegion":"75","codesPostaux":["23500"],"population":202},"geometry":{"type":"Point","coordinates":[2.165857290135397,45.82639664990328]}},{"type":"Feature","properties":{"nom":"Domeyrot","code":"23072","codeDepartement":"23","codeRegion":"75","codesPostaux":["23140"],"population":220},"geometry":{"type":"Point","coordinates":[2.1418524422403733,46.251604756126]}},{"type":"Feature","properties":{"nom":"Dontreix","code":"23073","codeDepartement":"23","codeRegion":"75","codesPostaux":["23700"],"population":409},"geometry":{"type":"Point","coordinates":[2.5419056910179627,45.980471355688586]}},{"type":"Feature","properties":{"nom":"Le Donzeil","code":"23074","codeDepartement":"23","codeRegion":"75","codesPostaux":["23480"],"population":189},"geometry":{"type":"Point","coordinates":[1.9891051934306552,46.03555381386856]}},{"type":"Feature","properties":{"nom":"Dun-le-Palestel","code":"23075","codeDepartement":"23","codeRegion":"75","codesPostaux":["23800"],"population":1127},"geometry":{"type":"Point","coordinates":[1.6619528064516127,46.29892880952382]}},{"type":"Feature","properties":{"nom":"Évaux-les-Bains","code":"23076","codeDepartement":"23","codeRegion":"75","codesPostaux":["23110"],"population":1386},"geometry":{"type":"Point","coordinates":[2.5051374554163592,46.16952580987471]}},{"type":"Feature","properties":{"nom":"Faux-la-Montagne","code":"23077","codeDepartement":"23","codeRegion":"75","codesPostaux":["23340"],"population":413},"geometry":{"type":"Point","coordinates":[1.934219725247521,45.740172229372895]}},{"type":"Feature","properties":{"nom":"Faux-Mazuras","code":"23078","codeDepartement":"23","codeRegion":"75","codesPostaux":["23400"],"population":180},"geometry":{"type":"Point","coordinates":[1.7794156261937255,45.92453754024552]}},{"type":"Feature","properties":{"nom":"Felletin","code":"23079","codeDepartement":"23","codeRegion":"75","codesPostaux":["23500"],"population":1632},"geometry":{"type":"Point","coordinates":[2.185291465189874,45.89080729905064]}},{"type":"Feature","properties":{"nom":"Féniers","code":"23080","codeDepartement":"23","codeRegion":"75","codesPostaux":["23100"],"population":94},"geometry":{"type":"Point","coordinates":[2.1184267255717275,45.74295729313928]}},{"type":"Feature","properties":{"nom":"Flayat","code":"23081","codeDepartement":"23","codeRegion":"75","codesPostaux":["23260"],"population":314},"geometry":{"type":"Point","coordinates":[2.3845663539553774,45.78053027281945]}},{"type":"Feature","properties":{"nom":"Fleurat","code":"23082","codeDepartement":"23","codeRegion":"75","codesPostaux":["23320"],"population":305},"geometry":{"type":"Point","coordinates":[1.6852051406025823,46.23226558536585]}},{"type":"Feature","properties":{"nom":"Fontanières","code":"23083","codeDepartement":"23","codeRegion":"75","codesPostaux":["23110"],"population":252},"geometry":{"type":"Point","coordinates":[2.52337364056225,46.107478401606365]}},{"type":"Feature","properties":{"nom":"La Forêt-du-Temple","code":"23084","codeDepartement":"23","codeRegion":"75","codesPostaux":["23360"],"population":141},"geometry":{"type":"Point","coordinates":[1.9006870649038454,46.427799644230724]}},{"type":"Feature","properties":{"nom":"Fransèches","code":"23086","codeDepartement":"23","codeRegion":"75","codesPostaux":["23480"],"population":242},"geometry":{"type":"Point","coordinates":[2.0450476199494947,46.032094746212096]}},{"type":"Feature","properties":{"nom":"Fresselines","code":"23087","codeDepartement":"23","codeRegion":"75","codesPostaux":["23450"],"population":515},"geometry":{"type":"Point","coordinates":[1.7039683778280537,46.37421585067875]}},{"type":"Feature","properties":{"nom":"Gartempe","code":"23088","codeDepartement":"23","codeRegion":"75","codesPostaux":["23320"],"population":123},"geometry":{"type":"Point","coordinates":[1.7277058614130416,46.151537915760876]}},{"type":"Feature","properties":{"nom":"Genouillac","code":"23089","codeDepartement":"23","codeRegion":"75","codesPostaux":["23350"],"population":743},"geometry":{"type":"Point","coordinates":[1.9926428515723267,46.34439816855352]}},{"type":"Feature","properties":{"nom":"Gentioux-Pigerolles","code":"23090","codeDepartement":"23","codeRegion":"75","codesPostaux":["23340"],"population":418},"geometry":{"type":"Point","coordinates":[2.0274838081632653,45.78176272142857]}},{"type":"Feature","properties":{"nom":"Gioux","code":"23091","codeDepartement":"23","codeRegion":"75","codesPostaux":["23500"],"population":168},"geometry":{"type":"Point","coordinates":[2.1106328933717604,45.80636310086457]}},{"type":"Feature","properties":{"nom":"Glénic","code":"23092","codeDepartement":"23","codeRegion":"75","codesPostaux":["23380"],"population":661},"geometry":{"type":"Point","coordinates":[1.9392126601036268,46.23403541554408]}},{"type":"Feature","properties":{"nom":"Gouzon","code":"23093","codeDepartement":"23","codeRegion":"75","codesPostaux":["23230"],"population":1587},"geometry":{"type":"Point","coordinates":[2.217255125613345,46.184173003925444]}},{"type":"Feature","properties":{"nom":"Le Grand-Bourg","code":"23095","codeDepartement":"23","codeRegion":"75","codesPostaux":["23240"],"population":1222},"geometry":{"type":"Point","coordinates":[1.6517267243852436,46.16491556557367]}},{"type":"Feature","properties":{"nom":"Guéret","code":"23096","codeDepartement":"23","codeRegion":"75","codesPostaux":["23000"],"population":13275},"geometry":{"type":"Point","coordinates":[1.8714228511293625,46.1657186498973]}},{"type":"Feature","properties":{"nom":"Issoudun-Létrieix","code":"23097","codeDepartement":"23","codeRegion":"75","codesPostaux":["23130"],"population":300},"geometry":{"type":"Point","coordinates":[2.1630181026615967,46.065170038022735]}},{"type":"Feature","properties":{"nom":"Jalesches","code":"23098","codeDepartement":"23","codeRegion":"75","codesPostaux":["23270"],"population":89},"geometry":{"type":"Point","coordinates":[2.0819952131147548,46.293455450819636]}},{"type":"Feature","properties":{"nom":"Janaillat","code":"23099","codeDepartement":"23","codeRegion":"75","codesPostaux":["23250"],"population":336},"geometry":{"type":"Point","coordinates":[1.7760596516007534,46.0489604453861]}},{"type":"Feature","properties":{"nom":"Jarnages","code":"23100","codeDepartement":"23","codeRegion":"75","codesPostaux":["23140"],"population":470},"geometry":{"type":"Point","coordinates":[2.080564390295358,46.18759674683544]}},{"type":"Feature","properties":{"nom":"Jouillat","code":"23101","codeDepartement":"23","codeRegion":"75","codesPostaux":["23220"],"population":412},"geometry":{"type":"Point","coordinates":[1.9344960032085534,46.26484203529409]}},{"type":"Feature","properties":{"nom":"Ladapeyre","code":"23102","codeDepartement":"23","codeRegion":"75","codesPostaux":["23270"],"population":350},"geometry":{"type":"Point","coordinates":[2.0517688036437236,46.24492196255058]}},{"type":"Feature","properties":{"nom":"Lafat","code":"23103","codeDepartement":"23","codeRegion":"75","codesPostaux":["23800"],"population":361},"geometry":{"type":"Point","coordinates":[1.6067489447077403,46.33949936966826]}},{"type":"Feature","properties":{"nom":"Lavaufranche","code":"23104","codeDepartement":"23","codeRegion":"75","codesPostaux":["23600"],"population":248},"geometry":{"type":"Point","coordinates":[2.2746549593837555,46.30833651260504]}},{"type":"Feature","properties":{"nom":"Lavaveix-les-Mines","code":"23105","codeDepartement":"23","codeRegion":"75","codesPostaux":["23150"],"population":682},"geometry":{"type":"Point","coordinates":[2.092105817307692,46.0761720096154]}},{"type":"Feature","properties":{"nom":"Lépaud","code":"23106","codeDepartement":"23","codeRegion":"75","codesPostaux":["23170"],"population":362},"geometry":{"type":"Point","coordinates":[2.386608728241561,46.229063845470726]}},{"type":"Feature","properties":{"nom":"Lépinas","code":"23107","codeDepartement":"23","codeRegion":"75","codesPostaux":["23150"],"population":146},"geometry":{"type":"Point","coordinates":[1.935247800813008,46.05502141260165]}},{"type":"Feature","properties":{"nom":"Leyrat","code":"23108","codeDepartement":"23","codeRegion":"75","codesPostaux":["23600"],"population":149},"geometry":{"type":"Point","coordinates":[2.292823844632768,46.355443100282486]}},{"type":"Feature","properties":{"nom":"Linard-Malval","code":"23109","codeDepartement":"23","codeRegion":"75","codesPostaux":["23220"],"population":208},"geometry":{"type":"Point","coordinates":[1.8806761256038635,46.364007080515314]}},{"type":"Feature","properties":{"nom":"Lioux-les-Monges","code":"23110","codeDepartement":"23","codeRegion":"75","codesPostaux":["23700"],"population":56},"geometry":{"type":"Point","coordinates":[2.4431840429447846,45.94000842944784]}},{"type":"Feature","properties":{"nom":"Lizières","code":"23111","codeDepartement":"23","codeRegion":"75","codesPostaux":["23240"],"population":270},"geometry":{"type":"Point","coordinates":[1.5736959275198203,46.20732402151752]}},{"type":"Feature","properties":{"nom":"Lourdoueix-Saint-Pierre","code":"23112","codeDepartement":"23","codeRegion":"75","codesPostaux":["23360"],"population":776},"geometry":{"type":"Point","coordinates":[1.8190901790540517,46.38942468665537]}},{"type":"Feature","properties":{"nom":"Lupersat","code":"23113","codeDepartement":"23","codeRegion":"75","codesPostaux":["23190"],"population":312},"geometry":{"type":"Point","coordinates":[2.3503675292368666,45.992114008919714]}},{"type":"Feature","properties":{"nom":"Lussat","code":"23114","codeDepartement":"23","codeRegion":"75","codesPostaux":["23170"],"population":436},"geometry":{"type":"Point","coordinates":[2.3354060386803144,46.18336588850967]}},{"type":"Feature","properties":{"nom":"Magnat-l'Étrange","code":"23115","codeDepartement":"23","codeRegion":"75","codesPostaux":["23260"],"population":235},"geometry":{"type":"Point","coordinates":[2.279387510489511,45.797144295104886]}},{"type":"Feature","properties":{"nom":"Mainsat","code":"23116","codeDepartement":"23","codeRegion":"75","codesPostaux":["23700"],"population":574},"geometry":{"type":"Point","coordinates":[2.3836816762295077,46.04638389856563]}},{"type":"Feature","properties":{"nom":"Maison-Feyne","code":"23117","codeDepartement":"23","codeRegion":"75","codesPostaux":["23800"],"population":304},"geometry":{"type":"Point","coordinates":[1.672039998046876,46.348319806640625]}},{"type":"Feature","properties":{"nom":"Maisonnisses","code":"23118","codeDepartement":"23","codeRegion":"75","codesPostaux":["23150"],"population":197},"geometry":{"type":"Point","coordinates":[1.904129403999999,46.059389374]}},{"type":"Feature","properties":{"nom":"Malleret","code":"23119","codeDepartement":"23","codeRegion":"75","codesPostaux":["23260"],"population":44},"geometry":{"type":"Point","coordinates":[2.3293840699588495,45.76217707818934]}},{"type":"Feature","properties":{"nom":"Malleret-Boussac","code":"23120","codeDepartement":"23","codeRegion":"75","codesPostaux":["23600"],"population":199},"geometry":{"type":"Point","coordinates":[2.1615350641791014,46.3303037925373]}},{"type":"Feature","properties":{"nom":"Mansat-la-Courrière","code":"23122","codeDepartement":"23","codeRegion":"75","codesPostaux":["23400"],"population":93},"geometry":{"type":"Point","coordinates":[1.7937590300300301,45.965983120120114]}},{"type":"Feature","properties":{"nom":"Les Mars","code":"23123","codeDepartement":"23","codeRegion":"75","codesPostaux":["23700"],"population":196},"geometry":{"type":"Point","coordinates":[2.49027984568835,45.99426573373674]}},{"type":"Feature","properties":{"nom":"Marsac","code":"23124","codeDepartement":"23","codeRegion":"75","codesPostaux":["23210"],"population":675},"geometry":{"type":"Point","coordinates":[1.5845527420333831,46.100287778452156]}},{"type":"Feature","properties":{"nom":"Le Mas-d'Artige","code":"23125","codeDepartement":"23","codeRegion":"75","codesPostaux":["23100"],"population":101},"geometry":{"type":"Point","coordinates":[2.184882151862464,45.73754499426936]}},{"type":"Feature","properties":{"nom":"Mautes","code":"23127","codeDepartement":"23","codeRegion":"75","codesPostaux":["23190"],"population":216},"geometry":{"type":"Point","coordinates":[2.382143402439025,45.938500360975596]}},{"type":"Feature","properties":{"nom":"Mazeirat","code":"23128","codeDepartement":"23","codeRegion":"75","codesPostaux":["23150"],"population":135},"geometry":{"type":"Point","coordinates":[1.986098524625268,46.13405555460382]}},{"type":"Feature","properties":{"nom":"La Mazière-aux-Bons-Hommes","code":"23129","codeDepartement":"23","codeRegion":"75","codesPostaux":["23260"],"population":67},"geometry":{"type":"Point","coordinates":[2.4433728464730295,45.894898649377595]}},{"type":"Feature","properties":{"nom":"Méasnes","code":"23130","codeDepartement":"23","codeRegion":"75","codesPostaux":["23360"],"population":550},"geometry":{"type":"Point","coordinates":[1.7759406720977595,46.42823659266808]}},{"type":"Feature","properties":{"nom":"Mérinchal","code":"23131","codeDepartement":"23","codeRegion":"75","codesPostaux":["23420"],"population":738},"geometry":{"type":"Point","coordinates":[2.4970469518935503,45.9116151371546]}},{"type":"Feature","properties":{"nom":"Montaigut-le-Blanc","code":"23132","codeDepartement":"23","codeRegion":"75","codesPostaux":["23320"],"population":407},"geometry":{"type":"Point","coordinates":[1.7358562388268137,46.11777206145256]}},{"type":"Feature","properties":{"nom":"Montboucher","code":"23133","codeDepartement":"23","codeRegion":"75","codesPostaux":["23400"],"population":351},"geometry":{"type":"Point","coordinates":[1.6764800769230752,45.94811705048082]}},{"type":"Feature","properties":{"nom":"Le Monteil-au-Vicomte","code":"23134","codeDepartement":"23","codeRegion":"75","codesPostaux":["23460"],"population":202},"geometry":{"type":"Point","coordinates":[1.945791003752346,45.90545798499062]}},{"type":"Feature","properties":{"nom":"Mortroux","code":"23136","codeDepartement":"23","codeRegion":"75","codesPostaux":["23220"],"population":288},"geometry":{"type":"Point","coordinates":[1.9017790207612482,46.39493027681661]}},{"type":"Feature","properties":{"nom":"Mourioux-Vieilleville","code":"23137","codeDepartement":"23","codeRegion":"75","codesPostaux":["23210"],"population":513},"geometry":{"type":"Point","coordinates":[1.6395736247484902,46.08178522837015]}},{"type":"Feature","properties":{"nom":"Moutier-d'Ahun","code":"23138","codeDepartement":"23","codeRegion":"75","codesPostaux":["23150"],"population":180},"geometry":{"type":"Point","coordinates":[2.063650684992573,46.100281105497764]}},{"type":"Feature","properties":{"nom":"Moutier-Malcard","code":"23139","codeDepartement":"23","codeRegion":"75","codesPostaux":["23220"],"population":527},"geometry":{"type":"Point","coordinates":[1.947026648506153,46.383238400703]}},{"type":"Feature","properties":{"nom":"Moutier-Rozeille","code":"23140","codeDepartement":"23","codeRegion":"75","codesPostaux":["23200"],"population":431},"geometry":{"type":"Point","coordinates":[2.201950481843576,45.91663187988825]}},{"type":"Feature","properties":{"nom":"Naillat","code":"23141","codeDepartement":"23","codeRegion":"75","codesPostaux":["23800"],"population":653},"geometry":{"type":"Point","coordinates":[1.651472181379309,46.261387886896586]}},{"type":"Feature","properties":{"nom":"Néoux","code":"23142","codeDepartement":"23","codeRegion":"75","codesPostaux":["23200"],"population":286},"geometry":{"type":"Point","coordinates":[2.2594682566964273,45.91741834375]}},{"type":"Feature","properties":{"nom":"Noth","code":"23143","codeDepartement":"23","codeRegion":"75","codesPostaux":["23300"],"population":507},"geometry":{"type":"Point","coordinates":[1.5749961428571428,46.24401177718545]}},{"type":"Feature","properties":{"nom":"La Nouaille","code":"23144","codeDepartement":"23","codeRegion":"75","codesPostaux":["23500"],"population":247},"geometry":{"type":"Point","coordinates":[2.0740234821826298,45.8447593797328]}},{"type":"Feature","properties":{"nom":"Nouhant","code":"23145","codeDepartement":"23","codeRegion":"75","codesPostaux":["23170"],"population":295},"geometry":{"type":"Point","coordinates":[2.3919875334281646,46.28790555192034]}},{"type":"Feature","properties":{"nom":"Nouzerines","code":"23146","codeDepartement":"23","codeRegion":"75","codesPostaux":["23600"],"population":250},"geometry":{"type":"Point","coordinates":[2.1156941482820963,46.397355971066936]}},{"type":"Feature","properties":{"nom":"Nouzerolles","code":"23147","codeDepartement":"23","codeRegion":"75","codesPostaux":["23360"],"population":101},"geometry":{"type":"Point","coordinates":[1.7382955462555059,46.38255742731277]}},{"type":"Feature","properties":{"nom":"Nouziers","code":"23148","codeDepartement":"23","codeRegion":"75","codesPostaux":["23350"],"population":238},"geometry":{"type":"Point","coordinates":[1.957376083815029,46.41925691040458]}},{"type":"Feature","properties":{"nom":"Parsac-Rimondeix","code":"23149","codeDepartement":"23","codeRegion":"75","codesPostaux":["23140"],"population":695},"geometry":{"type":"Point","coordinates":[2.1290107979966617,46.20880850834722]}},{"type":"Feature","properties":{"nom":"Peyrabout","code":"23150","codeDepartement":"23","codeRegion":"75","codesPostaux":["23000"],"population":152},"geometry":{"type":"Point","coordinates":[1.9205164533333328,46.1031873973333]}},{"type":"Feature","properties":{"nom":"Peyrat-la-Nonière","code":"23151","codeDepartement":"23","codeRegion":"75","codesPostaux":["23130"],"population":424},"geometry":{"type":"Point","coordinates":[2.25495376765376,46.077880792710744]}},{"type":"Feature","properties":{"nom":"Pierrefitte","code":"23152","codeDepartement":"23","codeRegion":"75","codesPostaux":["23130"],"population":70},"geometry":{"type":"Point","coordinates":[2.2351158853046575,46.153842458781384]}},{"type":"Feature","properties":{"nom":"Pionnat","code":"23154","codeDepartement":"23","codeRegion":"75","codesPostaux":["23140"],"population":769},"geometry":{"type":"Point","coordinates":[2.0333489569288394,46.167082419475676]}},{"type":"Feature","properties":{"nom":"Pontarion","code":"23155","codeDepartement":"23","codeRegion":"75","codesPostaux":["23250"],"population":366},"geometry":{"type":"Point","coordinates":[1.8480331023965137,45.996410496732025]}},{"type":"Feature","properties":{"nom":"Pontcharraud","code":"23156","codeDepartement":"23","codeRegion":"75","codesPostaux":["23260"],"population":78},"geometry":{"type":"Point","coordinates":[2.276829184834122,45.86052662875195]}},{"type":"Feature","properties":{"nom":"La Pouge","code":"23157","codeDepartement":"23","codeRegion":"75","codesPostaux":["23250"],"population":87},"geometry":{"type":"Point","coordinates":[1.937441438118812,45.97040312128711]}},{"type":"Feature","properties":{"nom":"Poussanges","code":"23158","codeDepartement":"23","codeRegion":"75","codesPostaux":["23500"],"population":152},"geometry":{"type":"Point","coordinates":[2.2201277631578953,45.82353674613005]}},{"type":"Feature","properties":{"nom":"Puy-Malsignat","code":"23159","codeDepartement":"23","codeRegion":"75","codesPostaux":["23130"],"population":165},"geometry":{"type":"Point","coordinates":[2.2173310262529853,46.032903011933165]}},{"type":"Feature","properties":{"nom":"Reterre","code":"23160","codeDepartement":"23","codeRegion":"75","codesPostaux":["23110"],"population":289},"geometry":{"type":"Point","coordinates":[2.465469602698654,46.10791110944526]}},{"type":"Feature","properties":{"nom":"Roches","code":"23162","codeDepartement":"23","codeRegion":"75","codesPostaux":["23270"],"population":367},"geometry":{"type":"Point","coordinates":[1.9873421295264626,46.276710371866315]}},{"type":"Feature","properties":{"nom":"Rougnat","code":"23164","codeDepartement":"23","codeRegion":"75","codesPostaux":["23700"],"population":498},"geometry":{"type":"Point","coordinates":[2.4945514382978753,46.05469258829784]}},{"type":"Feature","properties":{"nom":"Royère-de-Vassivière","code":"23165","codeDepartement":"23","codeRegion":"75","codesPostaux":["23460"],"population":571},"geometry":{"type":"Point","coordinates":[1.9052865342756191,45.84191939787985]}},{"type":"Feature","properties":{"nom":"Sagnat","code":"23166","codeDepartement":"23","codeRegion":"75","codesPostaux":["23800"],"population":195},"geometry":{"type":"Point","coordinates":[1.6211940815307806,46.31355523294507]}},{"type":"Feature","properties":{"nom":"Sannat","code":"23167","codeDepartement":"23","codeRegion":"75","codesPostaux":["23110"],"population":350},"geometry":{"type":"Point","coordinates":[2.4159022222222237,46.12509265185183]}},{"type":"Feature","properties":{"nom":"Sardent","code":"23168","codeDepartement":"23","codeRegion":"75","codesPostaux":["23250"],"population":785},"geometry":{"type":"Point","coordinates":[1.8548194711999997,46.04263922000004]}},{"type":"Feature","properties":{"nom":"La Saunière","code":"23169","codeDepartement":"23","codeRegion":"75","codesPostaux":["23000"],"population":609},"geometry":{"type":"Point","coordinates":[1.939964524793389,46.12877903305786]}},{"type":"Feature","properties":{"nom":"Savennes","code":"23170","codeDepartement":"23","codeRegion":"75","codesPostaux":["23000"],"population":215},"geometry":{"type":"Point","coordinates":[1.8858233380952385,46.11512674761905]}},{"type":"Feature","properties":{"nom":"Sermur","code":"23171","codeDepartement":"23","codeRegion":"75","codesPostaux":["23700"],"population":133},"geometry":{"type":"Point","coordinates":[2.4161078817034722,45.971324634069404]}},{"type":"Feature","properties":{"nom":"La Serre-Bussière-Vieille","code":"23172","codeDepartement":"23","codeRegion":"75","codesPostaux":["23190"],"population":122},"geometry":{"type":"Point","coordinates":[2.3315053852941183,46.0553949705882]}},{"type":"Feature","properties":{"nom":"Soubrebost","code":"23173","codeDepartement":"23","codeRegion":"75","codesPostaux":["23250"],"population":137},"geometry":{"type":"Point","coordinates":[1.8419168926829268,45.96328809756101]}},{"type":"Feature","properties":{"nom":"Soumans","code":"23174","codeDepartement":"23","codeRegion":"75","codesPostaux":["23600"],"population":611},"geometry":{"type":"Point","coordinates":[2.3199611972873,46.308069441430355]}},{"type":"Feature","properties":{"nom":"Sous-Parsat","code":"23175","codeDepartement":"23","codeRegion":"75","codesPostaux":["23150"],"population":114},"geometry":{"type":"Point","coordinates":[1.9774507252124645,46.06030999433426]}},{"type":"Feature","properties":{"nom":"La Souterraine","code":"23176","codeDepartement":"23","codeRegion":"75","codesPostaux":["23300"],"population":5296},"geometry":{"type":"Point","coordinates":[1.4771577505043743,46.23653976664432]}},{"type":"Feature","properties":{"nom":"Saint-Agnant-de-Versillat","code":"23177","codeDepartement":"23","codeRegion":"75","codesPostaux":["23300"],"population":1099},"geometry":{"type":"Point","coordinates":[1.5097013993925594,46.27927451176921]}},{"type":"Feature","properties":{"nom":"Saint-Agnant-près-Crocq","code":"23178","codeDepartement":"23","codeRegion":"75","codesPostaux":["23260"],"population":190},"geometry":{"type":"Point","coordinates":[2.333152197031038,45.8110053751687]}},{"type":"Feature","properties":{"nom":"Saint-Alpinien","code":"23179","codeDepartement":"23","codeRegion":"75","codesPostaux":["23200"],"population":274},"geometry":{"type":"Point","coordinates":[2.249740686528501,45.966946813471544]}},{"type":"Feature","properties":{"nom":"Saint-Amand","code":"23180","codeDepartement":"23","codeRegion":"75","codesPostaux":["23200"],"population":498},"geometry":{"type":"Point","coordinates":[2.2051209073723994,45.97309291115314]}},{"type":"Feature","properties":{"nom":"Saint-Amand-Jartoudeix","code":"23181","codeDepartement":"23","codeRegion":"75","codesPostaux":["23400"],"population":171},"geometry":{"type":"Point","coordinates":[1.66461942099193,45.91438997577855]}},{"type":"Feature","properties":{"nom":"Saint-Avit-de-Tardes","code":"23182","codeDepartement":"23","codeRegion":"75","codesPostaux":["23200"],"population":174},"geometry":{"type":"Point","coordinates":[2.2990008611632273,45.919318101313394]}},{"type":"Feature","properties":{"nom":"Saint-Avit-le-Pauvre","code":"23183","codeDepartement":"23","codeRegion":"75","codesPostaux":["23480"],"population":78},"geometry":{"type":"Point","coordinates":[2.0493020506756765,45.99252143918919]}},{"type":"Feature","properties":{"nom":"Saint-Bard","code":"23184","codeDepartement":"23","codeRegion":"75","codesPostaux":["23260"],"population":106},"geometry":{"type":"Point","coordinates":[2.4080202181818215,45.91142846262626]}},{"type":"Feature","properties":{"nom":"Saint-Chabrais","code":"23185","codeDepartement":"23","codeRegion":"75","codesPostaux":["23130"],"population":297},"geometry":{"type":"Point","coordinates":[2.2098777507645266,46.12286167584097]}},{"type":"Feature","properties":{"nom":"Saint-Christophe","code":"23186","codeDepartement":"23","codeRegion":"75","codesPostaux":["23000"],"population":145},"geometry":{"type":"Point","coordinates":[1.8576228401360544,46.09621655102038]}},{"type":"Feature","properties":{"nom":"Saint-Dizier-la-Tour","code":"23187","codeDepartement":"23","codeRegion":"75","codesPostaux":["23130"],"population":214},"geometry":{"type":"Point","coordinates":[2.1496366296874987,46.14092967343749]}},{"type":"Feature","properties":{"nom":"Saint-Dizier-les-Domaines","code":"23188","codeDepartement":"23","codeRegion":"75","codesPostaux":["23270"],"population":190},"geometry":{"type":"Point","coordinates":[2.042998250474383,46.32262256546491]}},{"type":"Feature","properties":{"nom":"Saint-Dizier-Masbaraud","code":"23189","codeDepartement":"23","codeRegion":"75","codesPostaux":["23400"],"population":1122},"geometry":{"type":"Point","coordinates":[1.7195420595988535,46.0063228991404]}},{"type":"Feature","properties":{"nom":"Saint-Domet","code":"23190","codeDepartement":"23","codeRegion":"75","codesPostaux":["23190"],"population":177},"geometry":{"type":"Point","coordinates":[2.300076789473682,46.04714465263157]}},{"type":"Feature","properties":{"nom":"Saint-Éloi","code":"23191","codeDepartement":"23","codeRegion":"75","codesPostaux":["23000"],"population":224},"geometry":{"type":"Point","coordinates":[1.8140969239130422,46.08107198913045]}},{"type":"Feature","properties":{"nom":"Fursac","code":"23192","codeDepartement":"23","codeRegion":"75","codesPostaux":["23290"],"population":1524},"geometry":{"type":"Point","coordinates":[1.5131077152354584,46.14686372188372]}},{"type":"Feature","properties":{"nom":"Sainte-Feyre","code":"23193","codeDepartement":"23","codeRegion":"75","codesPostaux":["23000"],"population":2472},"geometry":{"type":"Point","coordinates":[1.9139943036876366,46.158094680043405]}},{"type":"Feature","properties":{"nom":"Sainte-Feyre-la-Montagne","code":"23194","codeDepartement":"23","codeRegion":"75","codesPostaux":["23500"],"population":133},"geometry":{"type":"Point","coordinates":[2.2316907540983597,45.894855531615946]}},{"type":"Feature","properties":{"nom":"Saint-Fiel","code":"23195","codeDepartement":"23","codeRegion":"75","codesPostaux":["23000"],"population":1037},"geometry":{"type":"Point","coordinates":[1.8920795931721146,46.21191703840683]}},{"type":"Feature","properties":{"nom":"Saint-Frion","code":"23196","codeDepartement":"23","codeRegion":"75","codesPostaux":["23500"],"population":257},"geometry":{"type":"Point","coordinates":[2.225729359255201,45.86547832749175]}},{"type":"Feature","properties":{"nom":"Saint-Georges-la-Pouge","code":"23197","codeDepartement":"23","codeRegion":"75","codesPostaux":["23250"],"population":371},"geometry":{"type":"Point","coordinates":[1.9611807913793093,46.00118961896549]}},{"type":"Feature","properties":{"nom":"Saint-Georges-Nigremont","code":"23198","codeDepartement":"23","codeRegion":"75","codesPostaux":["23500"],"population":121},"geometry":{"type":"Point","coordinates":[2.2736688758085366,45.83741867658476]}},{"type":"Feature","properties":{"nom":"Saint-Germain-Beaupré","code":"23199","codeDepartement":"23","codeRegion":"75","codesPostaux":["23160"],"population":440},"geometry":{"type":"Point","coordinates":[1.561495849152543,46.31236780338987]}},{"type":"Feature","properties":{"nom":"Saint-Goussaud","code":"23200","codeDepartement":"23","codeRegion":"75","codesPostaux":["23430"],"population":162},"geometry":{"type":"Point","coordinates":[1.564112699790797,46.03590730648537]}},{"type":"Feature","properties":{"nom":"Saint-Hilaire-la-Plaine","code":"23201","codeDepartement":"23","codeRegion":"75","codesPostaux":["23150"],"population":210},"geometry":{"type":"Point","coordinates":[1.9872732584459463,46.11570140709458]}},{"type":"Feature","properties":{"nom":"Saint-Hilaire-le-Château","code":"23202","codeDepartement":"23","codeRegion":"75","codesPostaux":["23250"],"population":234},"geometry":{"type":"Point","coordinates":[1.8976046305048317,45.9938612631579]}},{"type":"Feature","properties":{"nom":"Saint-Julien-la-Genête","code":"23203","codeDepartement":"23","codeRegion":"75","codesPostaux":["23110"],"population":227},"geometry":{"type":"Point","coordinates":[2.473820537067546,46.13925600329492]}},{"type":"Feature","properties":{"nom":"Saint-Julien-le-Châtel","code":"23204","codeDepartement":"23","codeRegion":"75","codesPostaux":["23130"],"population":145},"geometry":{"type":"Point","coordinates":[2.2655161218424977,46.11927936998514]}},{"type":"Feature","properties":{"nom":"Saint-Junien-la-Bregère","code":"23205","codeDepartement":"23","codeRegion":"75","codesPostaux":["23400"],"population":138},"geometry":{"type":"Point","coordinates":[1.7441155993740227,45.886584920187765]}},{"type":"Feature","properties":{"nom":"Saint-Laurent","code":"23206","codeDepartement":"23","codeRegion":"75","codesPostaux":["23000"],"population":689},"geometry":{"type":"Point","coordinates":[1.9558211271777013,46.16033007839721]}},{"type":"Feature","properties":{"nom":"Saint-Léger-Bridereix","code":"23207","codeDepartement":"23","codeRegion":"75","codesPostaux":["23300"],"population":200},"geometry":{"type":"Point","coordinates":[1.578935130617977,46.281222912921265]}},{"type":"Feature","properties":{"nom":"Saint-Léger-le-Guérétois","code":"23208","codeDepartement":"23","codeRegion":"75","codesPostaux":["23000"],"population":436},"geometry":{"type":"Point","coordinates":[1.8096579546099278,46.14724051347518]}},{"type":"Feature","properties":{"nom":"Saint-Loup","code":"23209","codeDepartement":"23","codeRegion":"75","codesPostaux":["23130"],"population":182},"geometry":{"type":"Point","coordinates":[2.283049068522481,46.14507739186294]}},{"type":"Feature","properties":{"nom":"Saint-Maixant","code":"23210","codeDepartement":"23","codeRegion":"75","codesPostaux":["23200"],"population":239},"geometry":{"type":"Point","coordinates":[2.195349319682962,45.99909873579923]}},{"type":"Feature","properties":{"nom":"Saint-Marc-à-Frongier","code":"23211","codeDepartement":"23","codeRegion":"75","codesPostaux":["23200"],"population":421},"geometry":{"type":"Point","coordinates":[2.1092775095986034,45.92289537870854]}},{"type":"Feature","properties":{"nom":"Saint-Marc-à-Loubaud","code":"23212","codeDepartement":"23","codeRegion":"75","codesPostaux":["23460"],"population":137},"geometry":{"type":"Point","coordinates":[1.9802279388714736,45.84439820532915]}},{"type":"Feature","properties":{"nom":"Saint-Marien","code":"23213","codeDepartement":"23","codeRegion":"75","codesPostaux":["23600"],"population":188},"geometry":{"type":"Point","coordinates":[2.2172663387978138,46.411610524590195]}},{"type":"Feature","properties":{"nom":"Saint-Martial-le-Mont","code":"23214","codeDepartement":"23","codeRegion":"75","codesPostaux":["23150"],"population":256},"geometry":{"type":"Point","coordinates":[2.086818553639847,46.04955743486588]}},{"type":"Feature","properties":{"nom":"Saint-Martial-le-Vieux","code":"23215","codeDepartement":"23","codeRegion":"75","codesPostaux":["23100"],"population":134},"geometry":{"type":"Point","coordinates":[2.3061770204081626,45.68982251428572]}},{"type":"Feature","properties":{"nom":"Saint-Martin-Château","code":"23216","codeDepartement":"23","codeRegion":"75","codesPostaux":["23460"],"population":145},"geometry":{"type":"Point","coordinates":[1.8109807226074899,45.849242464632454]}},{"type":"Feature","properties":{"nom":"Saint-Martin-Sainte-Catherine","code":"23217","codeDepartement":"23","codeRegion":"75","codesPostaux":["23430"],"population":341},"geometry":{"type":"Point","coordinates":[1.55744566332916,45.93767659324163]}},{"type":"Feature","properties":{"nom":"Saint-Maurice-près-Crocq","code":"23218","codeDepartement":"23","codeRegion":"75","codesPostaux":["23260"],"population":100},"geometry":{"type":"Point","coordinates":[2.311382152832676,45.859782562582296]}},{"type":"Feature","properties":{"nom":"Saint-Maurice-la-Souterraine","code":"23219","codeDepartement":"23","codeRegion":"75","codesPostaux":["23300"],"population":1227},"geometry":{"type":"Point","coordinates":[1.4273153199626856,46.21292580970143]}},{"type":"Feature","properties":{"nom":"Saint-Médard-la-Rochette","code":"23220","codeDepartement":"23","codeRegion":"75","codesPostaux":["23200"],"population":592},"geometry":{"type":"Point","coordinates":[2.137113287280701,46.02041889802632]}},{"type":"Feature","properties":{"nom":"Saint-Merd-la-Breuille","code":"23221","codeDepartement":"23","codeRegion":"75","codesPostaux":["23100"],"population":189},"geometry":{"type":"Point","coordinates":[2.4299983563501883,45.72994587546243]}},{"type":"Feature","properties":{"nom":"Saint-Michel-de-Veisse","code":"23222","codeDepartement":"23","codeRegion":"75","codesPostaux":["23480"],"population":163},"geometry":{"type":"Point","coordinates":[2.0620954063116366,45.94845478698222]}},{"type":"Feature","properties":{"nom":"Saint-Moreil","code":"23223","codeDepartement":"23","codeRegion":"75","codesPostaux":["23400"],"population":221},"geometry":{"type":"Point","coordinates":[1.6922445944881879,45.861362858267746]}},{"type":"Feature","properties":{"nom":"Saint-Oradoux-de-Chirouze","code":"23224","codeDepartement":"23","codeRegion":"75","codesPostaux":["23100"],"population":66},"geometry":{"type":"Point","coordinates":[2.328358986949429,45.73164151876014]}},{"type":"Feature","properties":{"nom":"Saint-Oradoux-près-Crocq","code":"23225","codeDepartement":"23","codeRegion":"75","codesPostaux":["23260"],"population":99},"geometry":{"type":"Point","coordinates":[2.376775064999998,45.887566314999994]}},{"type":"Feature","properties":{"nom":"Saint-Pardoux-d'Arnet","code":"23226","codeDepartement":"23","codeRegion":"75","codesPostaux":["23260"],"population":170},"geometry":{"type":"Point","coordinates":[2.327125512468828,45.87947517456357]}},{"type":"Feature","properties":{"nom":"Saint-Pardoux-Morterolles","code":"23227","codeDepartement":"23","codeRegion":"75","codesPostaux":["23400"],"population":204},"geometry":{"type":"Point","coordinates":[1.8269444183467736,45.90359664516121]}},{"type":"Feature","properties":{"nom":"Saint-Pardoux-le-Neuf","code":"23228","codeDepartement":"23","codeRegion":"75","codesPostaux":["23200"],"population":188},"geometry":{"type":"Point","coordinates":[2.228701293269233,45.934317978365385]}},{"type":"Feature","properties":{"nom":"Saint-Pardoux-les-Cards","code":"23229","codeDepartement":"23","codeRegion":"75","codesPostaux":["23150"],"population":290},"geometry":{"type":"Point","coordinates":[2.120822304347826,46.09368778965927]}},{"type":"Feature","properties":{"nom":"Saint-Pierre-Chérignat","code":"23230","codeDepartement":"23","codeRegion":"75","codesPostaux":["23430"],"population":170},"geometry":{"type":"Point","coordinates":[1.617324041290323,45.95853688129029]}},{"type":"Feature","properties":{"nom":"Saint-Pierre-Bellevue","code":"23232","codeDepartement":"23","codeRegion":"75","codesPostaux":["23460"],"population":214},"geometry":{"type":"Point","coordinates":[1.8918278382608693,45.90351553913041]}},{"type":"Feature","properties":{"nom":"Saint-Pierre-le-Bost","code":"23233","codeDepartement":"23","codeRegion":"75","codesPostaux":["23600"],"population":131},"geometry":{"type":"Point","coordinates":[2.263346214876031,46.39648016115705]}},{"type":"Feature","properties":{"nom":"Saint-Priest","code":"23234","codeDepartement":"23","codeRegion":"75","codesPostaux":["23110"],"population":162},"geometry":{"type":"Point","coordinates":[2.3549298268041228,46.09707022989699]}},{"type":"Feature","properties":{"nom":"Saint-Priest-la-Feuille","code":"23235","codeDepartement":"23","codeRegion":"75","codesPostaux":["23300"],"population":770},"geometry":{"type":"Point","coordinates":[1.5371742656250038,46.19544839670144]}},{"type":"Feature","properties":{"nom":"Saint-Priest-la-Plaine","code":"23236","codeDepartement":"23","codeRegion":"75","codesPostaux":["23240"],"population":261},"geometry":{"type":"Point","coordinates":[1.6299490885167465,46.20380131937796]}},{"type":"Feature","properties":{"nom":"Saint-Priest-Palus","code":"23237","codeDepartement":"23","codeRegion":"75","codesPostaux":["23400"],"population":55},"geometry":{"type":"Point","coordinates":[1.6760833025210067,45.893407984593836]}},{"type":"Feature","properties":{"nom":"Saint-Quentin-la-Chabanne","code":"23238","codeDepartement":"23","codeRegion":"75","codesPostaux":["23500"],"population":403},"geometry":{"type":"Point","coordinates":[2.151365658482144,45.881329821428544]}},{"type":"Feature","properties":{"nom":"Saint-Sébastien","code":"23239","codeDepartement":"23","codeRegion":"75","codesPostaux":["23160"],"population":655},"geometry":{"type":"Point","coordinates":[1.5332918756281408,46.392430025125606]}},{"type":"Feature","properties":{"nom":"Saint-Silvain-Bas-le-Roc","code":"23240","codeDepartement":"23","codeRegion":"75","codesPostaux":["23600"],"population":409},"geometry":{"type":"Point","coordinates":[2.220313332908166,46.331185257653104]}},{"type":"Feature","properties":{"nom":"Saint-Silvain-Bellegarde","code":"23241","codeDepartement":"23","codeRegion":"75","codesPostaux":["23190"],"population":207},"geometry":{"type":"Point","coordinates":[2.3033501672167223,45.97046467656764]}},{"type":"Feature","properties":{"nom":"Saint-Silvain-Montaigut","code":"23242","codeDepartement":"23","codeRegion":"75","codesPostaux":["23320"],"population":207},"geometry":{"type":"Point","coordinates":[1.7612421311914348,46.14009896251671]}},{"type":"Feature","properties":{"nom":"Saint-Silvain-sous-Toulx","code":"23243","codeDepartement":"23","codeRegion":"75","codesPostaux":["23140"],"population":163},"geometry":{"type":"Point","coordinates":[2.1866222316293955,46.26346870926521]}},{"type":"Feature","properties":{"nom":"Saint-Sulpice-le-Dunois","code":"23244","codeDepartement":"23","codeRegion":"75","codesPostaux":["23800"],"population":612},"geometry":{"type":"Point","coordinates":[1.7242215662949196,46.29487504832717]}},{"type":"Feature","properties":{"nom":"Saint-Sulpice-le-Guérétois","code":"23245","codeDepartement":"23","codeRegion":"75","codesPostaux":["23000"],"population":1969},"geometry":{"type":"Point","coordinates":[1.833764637514384,46.198940873417705]}},{"type":"Feature","properties":{"nom":"Saint-Sulpice-les-Champs","code":"23246","codeDepartement":"23","codeRegion":"75","codesPostaux":["23480"],"population":357},"geometry":{"type":"Point","coordinates":[2.0277438352059916,45.99221572159802]}},{"type":"Feature","properties":{"nom":"Saint-Vaury","code":"23247","codeDepartement":"23","codeRegion":"75","codesPostaux":["23320"],"population":1764},"geometry":{"type":"Point","coordinates":[1.7475808638253623,46.19908558939708]}},{"type":"Feature","properties":{"nom":"Saint-Victor-en-Marche","code":"23248","codeDepartement":"23","codeRegion":"75","codesPostaux":["23000"],"population":385},"geometry":{"type":"Point","coordinates":[1.7956317640750692,46.12302526139409]}},{"type":"Feature","properties":{"nom":"Saint-Yrieix-la-Montagne","code":"23249","codeDepartement":"23","codeRegion":"75","codesPostaux":["23460"],"population":225},"geometry":{"type":"Point","coordinates":[2.00108601151079,45.8751107294964]}},{"type":"Feature","properties":{"nom":"Saint-Yrieix-les-Bois","code":"23250","codeDepartement":"23","codeRegion":"75","codesPostaux":["23150"],"population":286},"geometry":{"type":"Point","coordinates":[1.958610977711736,46.095380166419034]}},{"type":"Feature","properties":{"nom":"Tardes","code":"23251","codeDepartement":"23","codeRegion":"75","codesPostaux":["23170"],"population":137},"geometry":{"type":"Point","coordinates":[2.3581388898305113,46.142275248587566]}},{"type":"Feature","properties":{"nom":"Tercillat","code":"23252","codeDepartement":"23","codeRegion":"75","codesPostaux":["23350"],"population":159},"geometry":{"type":"Point","coordinates":[2.050794699186993,46.39754201626018]}},{"type":"Feature","properties":{"nom":"Thauron","code":"23253","codeDepartement":"23","codeRegion":"75","codesPostaux":["23250"],"population":176},"geometry":{"type":"Point","coordinates":[1.8073560476190464,46.00491905683558]}},{"type":"Feature","properties":{"nom":"Toulx-Sainte-Croix","code":"23254","codeDepartement":"23","codeRegion":"75","codesPostaux":["23600"],"population":265},"geometry":{"type":"Point","coordinates":[2.214879816183816,46.29269376323676]}},{"type":"Feature","properties":{"nom":"Trois-Fonds","code":"23255","codeDepartement":"23","codeRegion":"75","codesPostaux":["23230"],"population":121},"geometry":{"type":"Point","coordinates":[2.2350820118764827,46.24135842042757]}},{"type":"Feature","properties":{"nom":"Vallière","code":"23257","codeDepartement":"23","codeRegion":"75","codesPostaux":["23120"],"population":729},"geometry":{"type":"Point","coordinates":[2.032289955555556,45.9057484740741]}},{"type":"Feature","properties":{"nom":"Vareilles","code":"23258","codeDepartement":"23","codeRegion":"75","codesPostaux":["23300"],"population":311},"geometry":{"type":"Point","coordinates":[1.451590150717702,46.30264435287083]}},{"type":"Feature","properties":{"nom":"Verneiges","code":"23259","codeDepartement":"23","codeRegion":"75","codesPostaux":["23170"],"population":111},"geometry":{"type":"Point","coordinates":[2.342334933333334,46.265070860317415]}},{"type":"Feature","properties":{"nom":"Vidaillat","code":"23260","codeDepartement":"23","codeRegion":"75","codesPostaux":["23250"],"population":156},"geometry":{"type":"Point","coordinates":[1.9002352250000005,45.95805499999999]}},{"type":"Feature","properties":{"nom":"Viersat","code":"23261","codeDepartement":"23","codeRegion":"75","codesPostaux":["23170"],"population":305},"geometry":{"type":"Point","coordinates":[2.443809694444445,46.26086023437503]}},{"type":"Feature","properties":{"nom":"Vigeville","code":"23262","codeDepartement":"23","codeRegion":"75","codesPostaux":["23140"],"population":167},"geometry":{"type":"Point","coordinates":[2.07045959369202,46.157399858998126]}},{"type":"Feature","properties":{"nom":"Villard","code":"23263","codeDepartement":"23","codeRegion":"75","codesPostaux":["23800"],"population":368},"geometry":{"type":"Point","coordinates":[1.6994227001795326,46.332189199281814]}},{"type":"Feature","properties":{"nom":"La Villedieu","code":"23264","codeDepartement":"23","codeRegion":"75","codesPostaux":["23340"],"population":49},"geometry":{"type":"Point","coordinates":[1.8923205961538474,45.733535353846165]}},{"type":"Feature","properties":{"nom":"La Villeneuve","code":"23265","codeDepartement":"23","codeRegion":"75","codesPostaux":["23260"],"population":66},"geometry":{"type":"Point","coordinates":[2.4138734658385084,45.896518524844744]}},{"type":"Feature","properties":{"nom":"La Villetelle","code":"23266","codeDepartement":"23","codeRegion":"75","codesPostaux":["23260"],"population":169},"geometry":{"type":"Point","coordinates":[2.3379331292134857,45.92800332303372]}}]}