{"type":"FeatureCollection","features":[{"type":"Feature","properties":{"nom":"Abbans-Dessous","code":"25001","codeDepartement":"25","codeRegion":"27","codesPostaux":["25320"],"population":264},"geometry":{"type":"Point","coordinates":[5.874919550561798,47.132745741573046]}},{"type":"Feature","properties":{"nom":"Abbans-Dessus","code":"25002","codeDepartement":"25","codeRegion":"27","codesPostaux":["25440"],"population":304},"geometry":{"type":"Point","coordinates":[5.885277014285715,47.127245114285756]}},{"type":"Feature","properties":{"nom":"Abbenans","code":"25003","codeDepartement":"25","codeRegion":"27","codesPostaux":["25340"],"population":352},"geometry":{"type":"Point","coordinates":[6.449475645669287,47.4953548503937]}},{"type":"Feature","properties":{"nom":"Abbévillers","code":"25004","codeDepartement":"25","codeRegion":"27","codesPostaux":["25310"],"population":1031},"geometry":{"type":"Point","coordinates":[6.9159085258620685,47.42650912931035]}},{"type":"Feature","properties":{"nom":"Accolans","code":"25005","codeDepartement":"25","codeRegion":"27","codesPostaux":["25250"],"population":99},"geometry":{"type":"Point","coordinates":[6.535005228813559,47.490635233050874]}},{"type":"Feature","properties":{"nom":"Adam-lès-Passavant","code":"25006","codeDepartement":"25","codeRegion":"27","codesPostaux":["25360"],"population":91},"geometry":{"type":"Point","coordinates":[6.368971487012986,47.30601335064936]}},{"type":"Feature","properties":{"nom":"Adam-lès-Vercel","code":"25007","codeDepartement":"25","codeRegion":"27","codesPostaux":["25530"],"population":102},"geometry":{"type":"Point","coordinates":[6.391015806250001,47.16518967500001]}},{"type":"Feature","properties":{"nom":"Aibre","code":"25008","codeDepartement":"25","codeRegion":"27","codesPostaux":["25750"],"population":477},"geometry":{"type":"Point","coordinates":[6.699867132352942,47.55086792647059]}},{"type":"Feature","properties":{"nom":"Aïssey","code":"25009","codeDepartement":"25","codeRegion":"27","codesPostaux":["25360"],"population":175},"geometry":{"type":"Point","coordinates":[6.3271163192182405,47.267390820846906]}},{"type":"Feature","properties":{"nom":"Allenjoie","code":"25011","codeDepartement":"25","codeRegion":"27","codesPostaux":["25490"],"population":733},"geometry":{"type":"Point","coordinates":[6.892489659090906,47.53176123636363]}},{"type":"Feature","properties":{"nom":"Les Alliés","code":"25012","codeDepartement":"25","codeRegion":"27","codesPostaux":["25300"],"population":150},"geometry":{"type":"Point","coordinates":[6.446563619047617,46.95147481904762]}},{"type":"Feature","properties":{"nom":"Allondans","code":"25013","codeDepartement":"25","codeRegion":"27","codesPostaux":["25550"],"population":251},"geometry":{"type":"Point","coordinates":[6.750555918918917,47.52149447297296]}},{"type":"Feature","properties":{"nom":"Amagney","code":"25014","codeDepartement":"25","codeRegion":"27","codesPostaux":["25220"],"population":807},"geometry":{"type":"Point","coordinates":[6.142193725118482,47.30463709952603]}},{"type":"Feature","properties":{"nom":"Amancey","code":"25015","codeDepartement":"25","codeRegion":"27","codesPostaux":["25330"],"population":679},"geometry":{"type":"Point","coordinates":[6.0706666388308985,47.032433878914446]}},{"type":"Feature","properties":{"nom":"Amathay-Vésigneux","code":"25016","codeDepartement":"25","codeRegion":"27","codesPostaux":["25330"],"population":163},"geometry":{"type":"Point","coordinates":[6.187703402010049,47.02476619095475]}},{"type":"Feature","properties":{"nom":"Amondans","code":"25017","codeDepartement":"25","codeRegion":"27","codesPostaux":["25330"],"population":89},"geometry":{"type":"Point","coordinates":[6.0347164787644765,47.0710057799228]}},{"type":"Feature","properties":{"nom":"Anteuil","code":"25018","codeDepartement":"25","codeRegion":"27","codesPostaux":["25340"],"population":666},"geometry":{"type":"Point","coordinates":[6.587228996587031,47.37328115017063]}},{"type":"Feature","properties":{"nom":"Appenans","code":"25019","codeDepartement":"25","codeRegion":"27","codesPostaux":["25250"],"population":377},"geometry":{"type":"Point","coordinates":[6.570720738938055,47.45363416814159]}},{"type":"Feature","properties":{"nom":"Arbouans","code":"25020","codeDepartement":"25","codeRegion":"27","codesPostaux":["25400"],"population":930},"geometry":{"type":"Point","coordinates":[6.812545492957745,47.489542647887326]}},{"type":"Feature","properties":{"nom":"Arc-et-Senans","code":"25021","codeDepartement":"25","codeRegion":"27","codesPostaux":["25610"],"population":1630},"geometry":{"type":"Point","coordinates":[5.761109960698688,47.0413345065502]}},{"type":"Feature","properties":{"nom":"Arcey","code":"25022","codeDepartement":"25","codeRegion":"27","codesPostaux":["25750"],"population":1438},"geometry":{"type":"Point","coordinates":[6.645725495726497,47.5195103803419]}},{"type":"Feature","properties":{"nom":"Arçon","code":"25024","codeDepartement":"25","codeRegion":"27","codesPostaux":["25300"],"population":839},"geometry":{"type":"Point","coordinates":[6.376186256410259,46.95841468205128]}},{"type":"Feature","properties":{"nom":"Arc-sous-Cicon","code":"25025","codeDepartement":"25","codeRegion":"27","codesPostaux":["25520"],"population":670},"geometry":{"type":"Point","coordinates":[6.4116410594795505,47.04972128624536]}},{"type":"Feature","properties":{"nom":"Arc-sous-Montenot","code":"25026","codeDepartement":"25","codeRegion":"27","codesPostaux":["25270"],"population":198},"geometry":{"type":"Point","coordinates":[6.002249102040815,46.91745040136057]}},{"type":"Feature","properties":{"nom":"Aubonne","code":"25029","codeDepartement":"25","codeRegion":"27","codesPostaux":["25520"],"population":238},"geometry":{"type":"Point","coordinates":[6.335667937086093,47.03362742715231]}},{"type":"Feature","properties":{"nom":"Audeux","code":"25030","codeDepartement":"25","codeRegion":"27","codesPostaux":["25170"],"population":432},"geometry":{"type":"Point","coordinates":[5.867464700934579,47.257885869158876]}},{"type":"Feature","properties":{"nom":"Audincourt","code":"25031","codeDepartement":"25","codeRegion":"27","codesPostaux":["25400"],"population":13582},"geometry":{"type":"Point","coordinates":[6.8493322955665,47.480692418719194]}},{"type":"Feature","properties":{"nom":"Autechaux","code":"25032","codeDepartement":"25","codeRegion":"27","codesPostaux":["25110"],"population":416},"geometry":{"type":"Point","coordinates":[6.386926666666667,47.381403317073186]}},{"type":"Feature","properties":{"nom":"Autechaux-Roide","code":"25033","codeDepartement":"25","codeRegion":"27","codesPostaux":["25150"],"population":528},"geometry":{"type":"Point","coordinates":[6.806938891402711,47.387208199095]}},{"type":"Feature","properties":{"nom":"Les Auxons","code":"25035","codeDepartement":"25","codeRegion":"27","codesPostaux":["25870"],"population":2564},"geometry":{"type":"Point","coordinates":[5.956311999999996,47.30019812857141]}},{"type":"Feature","properties":{"nom":"Avanne-Aveney","code":"25036","codeDepartement":"25","codeRegion":"27","codesPostaux":["25720"],"population":2261},"geometry":{"type":"Point","coordinates":[5.957370705627703,47.1965802683983]}},{"type":"Feature","properties":{"nom":"Avilley","code":"25038","codeDepartement":"25","codeRegion":"27","codesPostaux":["25680"],"population":166},"geometry":{"type":"Point","coordinates":[6.26923887179487,47.42742407692309]}},{"type":"Feature","properties":{"nom":"Avoudrey","code":"25039","codeDepartement":"25","codeRegion":"27","codesPostaux":["25690"],"population":900},"geometry":{"type":"Point","coordinates":[6.434970368115941,47.140281440579734]}},{"type":"Feature","properties":{"nom":"Badevel","code":"25040","codeDepartement":"25","codeRegion":"27","codesPostaux":["25490"],"population":827},"geometry":{"type":"Point","coordinates":[6.936535873015872,47.50012111111111]}},{"type":"Feature","properties":{"nom":"Bannans","code":"25041","codeDepartement":"25","codeRegion":"27","codesPostaux":["25560"],"population":371},"geometry":{"type":"Point","coordinates":[6.243865611111114,46.89255926587307]}},{"type":"Feature","properties":{"nom":"Le Barboux","code":"25042","codeDepartement":"25","codeRegion":"27","codesPostaux":["25210"],"population":244},"geometry":{"type":"Point","coordinates":[6.719164210374636,47.12125795100867]}},{"type":"Feature","properties":{"nom":"Bart","code":"25043","codeDepartement":"25","codeRegion":"27","codesPostaux":["25420"],"population":2015},"geometry":{"type":"Point","coordinates":[6.767932295238097,47.49069158095238]}},{"type":"Feature","properties":{"nom":"Bartherans","code":"25044","codeDepartement":"25","codeRegion":"27","codesPostaux":["25440"],"population":52},"geometry":{"type":"Point","coordinates":[5.924221826923078,47.03063202564104]}},{"type":"Feature","properties":{"nom":"Battenans-les-Mines","code":"25045","codeDepartement":"25","codeRegion":"27","codesPostaux":["25640"],"population":57},"geometry":{"type":"Point","coordinates":[6.272757228758171,47.40511956209148]}},{"type":"Feature","properties":{"nom":"Battenans-Varin","code":"25046","codeDepartement":"25","codeRegion":"27","codesPostaux":["25380"],"population":78},"geometry":{"type":"Point","coordinates":[6.717618799382716,47.24350621913579]}},{"type":"Feature","properties":{"nom":"Baume-les-Dames","code":"25047","codeDepartement":"25","codeRegion":"27","codesPostaux":["25110"],"population":5149},"geometry":{"type":"Point","coordinates":[6.341730958795559,47.35425914580031]}},{"type":"Feature","properties":{"nom":"Bavans","code":"25048","codeDepartement":"25","codeRegion":"27","codesPostaux":["25550"],"population":3661},"geometry":{"type":"Point","coordinates":[6.728265684615382,47.48175388461541]}},{"type":"Feature","properties":{"nom":"Belfays","code":"25049","codeDepartement":"25","codeRegion":"27","codesPostaux":["25470"],"population":140},"geometry":{"type":"Point","coordinates":[6.905312245614034,47.25871059649124]}},{"type":"Feature","properties":{"nom":"Le Bélieu","code":"25050","codeDepartement":"25","codeRegion":"27","codesPostaux":["25500"],"population":443},"geometry":{"type":"Point","coordinates":[6.624154918994418,47.128516438547514]}},{"type":"Feature","properties":{"nom":"Belleherbe","code":"25051","codeDepartement":"25","codeRegion":"27","codesPostaux":["25380"],"population":607},"geometry":{"type":"Point","coordinates":[6.657562114467411,47.265761589825146]}},{"type":"Feature","properties":{"nom":"Belmont","code":"25052","codeDepartement":"25","codeRegion":"27","codesPostaux":["25530"],"population":66},"geometry":{"type":"Point","coordinates":[6.3636671506276175,47.219025803347286]}},{"type":"Feature","properties":{"nom":"Belvoir","code":"25053","codeDepartement":"25","codeRegion":"27","codesPostaux":["25430"],"population":108},"geometry":{"type":"Point","coordinates":[6.616073049808431,47.32348757471262]}},{"type":"Feature","properties":{"nom":"Berche","code":"25054","codeDepartement":"25","codeRegion":"27","codesPostaux":["25420"],"population":481},"geometry":{"type":"Point","coordinates":[6.750026195876293,47.46491445360824]}},{"type":"Feature","properties":{"nom":"Berthelange","code":"25055","codeDepartement":"25","codeRegion":"27","codesPostaux":["25410"],"population":320},"geometry":{"type":"Point","coordinates":[5.77965021764706,47.203060982352945]}},{"type":"Feature","properties":{"nom":"Besançon","code":"25056","codeDepartement":"25","codeRegion":"27","codesPostaux":["25000"],"population":116466},"geometry":{"type":"Point","coordinates":[6.028480838235295,47.26000681722685]}},{"type":"Feature","properties":{"nom":"Bethoncourt","code":"25057","codeDepartement":"25","codeRegion":"27","codesPostaux":["25200"],"population":5702},"geometry":{"type":"Point","coordinates":[6.800251134453783,47.53543914285715]}},{"type":"Feature","properties":{"nom":"Beure","code":"25058","codeDepartement":"25","codeRegion":"27","codesPostaux":["25720"],"population":1364},"geometry":{"type":"Point","coordinates":[6.002273154471545,47.20198171951221]}},{"type":"Feature","properties":{"nom":"Beutal","code":"25059","codeDepartement":"25","codeRegion":"27","codesPostaux":["25250"],"population":284},"geometry":{"type":"Point","coordinates":[6.634569029702971,47.47720465346537]}},{"type":"Feature","properties":{"nom":"Bians-les-Usiers","code":"25060","codeDepartement":"25","codeRegion":"27","codesPostaux":["25520"],"population":670},"geometry":{"type":"Point","coordinates":[6.273530980392157,46.96440597058825]}},{"type":"Feature","properties":{"nom":"Bief","code":"25061","codeDepartement":"25","codeRegion":"27","codesPostaux":["25190"],"population":110},"geometry":{"type":"Point","coordinates":[6.772430258064516,47.321974745519725]}},{"type":"Feature","properties":{"nom":"Le Bizot","code":"25062","codeDepartement":"25","codeRegion":"27","codesPostaux":["25210"],"population":309},"geometry":{"type":"Point","coordinates":[6.672519933333337,47.13355327407408]}},{"type":"Feature","properties":{"nom":"Blamont","code":"25063","codeDepartement":"25","codeRegion":"27","codesPostaux":["25310"],"population":1226},"geometry":{"type":"Point","coordinates":[6.85778979326923,47.38658115384612]}},{"type":"Feature","properties":{"nom":"Blarians","code":"25065","codeDepartement":"25","codeRegion":"27","codesPostaux":["25640"],"population":59},"geometry":{"type":"Point","coordinates":[6.179170067415728,47.41214676404495]}},{"type":"Feature","properties":{"nom":"Blussangeaux","code":"25066","codeDepartement":"25","codeRegion":"27","codesPostaux":["25250"],"population":84},"geometry":{"type":"Point","coordinates":[6.619506919191916,47.437148606060624]}},{"type":"Feature","properties":{"nom":"Blussans","code":"25067","codeDepartement":"25","codeRegion":"27","codesPostaux":["25250"],"population":195},"geometry":{"type":"Point","coordinates":[6.610025273037544,47.415130204778116]}},{"type":"Feature","properties":{"nom":"Bolandoz","code":"25070","codeDepartement":"25","codeRegion":"27","codesPostaux":["25330"],"population":379},"geometry":{"type":"Point","coordinates":[6.1131801958762875,47.00900846391754]}},{"type":"Feature","properties":{"nom":"Bondeval","code":"25071","codeDepartement":"25","codeRegion":"27","codesPostaux":["25230"],"population":473},"geometry":{"type":"Point","coordinates":[6.844739195652175,47.43388535326088]}},{"type":"Feature","properties":{"nom":"Bonnal","code":"25072","codeDepartement":"25","codeRegion":"27","codesPostaux":["25680"],"population":34},"geometry":{"type":"Point","coordinates":[6.362748675675675,47.50568524864864]}},{"type":"Feature","properties":{"nom":"Bonnay","code":"25073","codeDepartement":"25","codeRegion":"27","codesPostaux":["25870"],"population":841},"geometry":{"type":"Point","coordinates":[6.046921081632658,47.32821151700678]}},{"type":"Feature","properties":{"nom":"Bonnétage","code":"25074","codeDepartement":"25","codeRegion":"27","codesPostaux":["25210"],"population":887},"geometry":{"type":"Point","coordinates":[6.740837353783226,47.181727550102245]}},{"type":"Feature","properties":{"nom":"Bonnevaux","code":"25075","codeDepartement":"25","codeRegion":"27","codesPostaux":["25560"],"population":379},"geometry":{"type":"Point","coordinates":[6.196109124087589,46.81562187591239]}},{"type":"Feature","properties":{"nom":"La Bosse","code":"25077","codeDepartement":"25","codeRegion":"27","codesPostaux":["25210"],"population":74},"geometry":{"type":"Point","coordinates":[6.646860080508476,47.145209004237294]}},{"type":"Feature","properties":{"nom":"Bouclans","code":"25078","codeDepartement":"25","codeRegion":"27","codesPostaux":["25360"],"population":1079},"geometry":{"type":"Point","coordinates":[6.239647489841982,47.24955242663662]}},{"type":"Feature","properties":{"nom":"Boujailles","code":"25079","codeDepartement":"25","codeRegion":"27","codesPostaux":["25560"],"population":422},"geometry":{"type":"Point","coordinates":[6.081675413436693,46.88244817054263]}},{"type":"Feature","properties":{"nom":"Bourguignon","code":"25082","codeDepartement":"25","codeRegion":"27","codesPostaux":["25150"],"population":930},"geometry":{"type":"Point","coordinates":[6.775633470899469,47.41170193650793]}},{"type":"Feature","properties":{"nom":"Bournois","code":"25083","codeDepartement":"25","codeRegion":"27","codesPostaux":["25250"],"population":191},"geometry":{"type":"Point","coordinates":[6.498264937728931,47.4897502087912]}},{"type":"Feature","properties":{"nom":"Boussières","code":"25084","codeDepartement":"25","codeRegion":"27","codesPostaux":["25320"],"population":1102},"geometry":{"type":"Point","coordinates":[5.900938796954316,47.14888206598986]}},{"type":"Feature","properties":{"nom":"Bouverans","code":"25085","codeDepartement":"25","codeRegion":"27","codesPostaux":["25560"],"population":360},"geometry":{"type":"Point","coordinates":[6.219557590909091,46.83021721818182]}},{"type":"Feature","properties":{"nom":"Braillans","code":"25086","codeDepartement":"25","codeRegion":"27","codesPostaux":["25640"],"population":198},"geometry":{"type":"Point","coordinates":[6.090199086206896,47.311406931034476]}},{"type":"Feature","properties":{"nom":"Branne","code":"25087","codeDepartement":"25","codeRegion":"27","codesPostaux":["25340"],"population":172},"geometry":{"type":"Point","coordinates":[6.475739206106873,47.38057373282444]}},{"type":"Feature","properties":{"nom":"Breconchaux","code":"25088","codeDepartement":"25","codeRegion":"27","codesPostaux":["25640"],"population":96},"geometry":{"type":"Point","coordinates":[6.2716719197530875,47.34430785802469]}},{"type":"Feature","properties":{"nom":"Bremondans","code":"25089","codeDepartement":"25","codeRegion":"27","codesPostaux":["25530"],"population":85},"geometry":{"type":"Point","coordinates":[6.398383146478876,47.2299248619718]}},{"type":"Feature","properties":{"nom":"Brères","code":"25090","codeDepartement":"25","codeRegion":"27","codesPostaux":["25440"],"population":60},"geometry":{"type":"Point","coordinates":[5.864171738636364,47.05790463636361]}},{"type":"Feature","properties":{"nom":"Les Bréseux","code":"25091","codeDepartement":"25","codeRegion":"27","codesPostaux":["25120"],"population":483},"geometry":{"type":"Point","coordinates":[6.798288497109831,47.276757390173394]}},{"type":"Feature","properties":{"nom":"La Bretenière","code":"25092","codeDepartement":"25","codeRegion":"27","codesPostaux":["25640"],"population":71},"geometry":{"type":"Point","coordinates":[6.276071918604649,47.378945203488385]}},{"type":"Feature","properties":{"nom":"Bretigney","code":"25093","codeDepartement":"25","codeRegion":"27","codesPostaux":["25250"],"population":71},"geometry":{"type":"Point","coordinates":[6.6336807111111105,47.48673873333334]}},{"type":"Feature","properties":{"nom":"Bretigney-Notre-Dame","code":"25094","codeDepartement":"25","codeRegion":"27","codesPostaux":["25110"],"population":111},"geometry":{"type":"Point","coordinates":[6.304023613756612,47.30794013227513]}},{"type":"Feature","properties":{"nom":"Bretonvillers","code":"25095","codeDepartement":"25","codeRegion":"27","codesPostaux":["25380"],"population":276},"geometry":{"type":"Point","coordinates":[6.615614608374385,47.21391612068963]}},{"type":"Feature","properties":{"nom":"Brey-et-Maison-du-Bois","code":"25096","codeDepartement":"25","codeRegion":"27","codesPostaux":["25240"],"population":99},"geometry":{"type":"Point","coordinates":[6.23947785501859,46.745543208178425]}},{"type":"Feature","properties":{"nom":"Brognard","code":"25097","codeDepartement":"25","codeRegion":"27","codesPostaux":["25600"],"population":481},"geometry":{"type":"Point","coordinates":[6.867930730769235,47.52952249038459]}},{"type":"Feature","properties":{"nom":"Buffard","code":"25098","codeDepartement":"25","codeRegion":"27","codesPostaux":["25440"],"population":159},"geometry":{"type":"Point","coordinates":[5.829337564356433,47.037817420792095]}},{"type":"Feature","properties":{"nom":"Bugny","code":"25099","codeDepartement":"25","codeRegion":"27","codesPostaux":["25520"],"population":217},"geometry":{"type":"Point","coordinates":[6.367345294736844,47.00396383157893]}},{"type":"Feature","properties":{"nom":"Bulle","code":"25100","codeDepartement":"25","codeRegion":"27","codesPostaux":["25560"],"population":427},"geometry":{"type":"Point","coordinates":[6.212388638095239,46.901064961904794]}},{"type":"Feature","properties":{"nom":"Burgille","code":"25101","codeDepartement":"25","codeRegion":"27","codesPostaux":["25170"],"population":550},"geometry":{"type":"Point","coordinates":[5.780447566765581,47.261881071216614]}},{"type":"Feature","properties":{"nom":"Burnevillers","code":"25102","codeDepartement":"25","codeRegion":"27","codesPostaux":["25470"],"population":46},"geometry":{"type":"Point","coordinates":[7.01401970512821,47.33336601602564]}},{"type":"Feature","properties":{"nom":"Busy","code":"25103","codeDepartement":"25","codeRegion":"27","codesPostaux":["25320"],"population":628},"geometry":{"type":"Point","coordinates":[5.955414439613528,47.1677617101449]}},{"type":"Feature","properties":{"nom":"By","code":"25104","codeDepartement":"25","codeRegion":"27","codesPostaux":["25440"],"population":71},"geometry":{"type":"Point","coordinates":[5.897293864406781,47.01372033474575]}},{"type":"Feature","properties":{"nom":"Byans-sur-Doubs","code":"25105","codeDepartement":"25","codeRegion":"27","codesPostaux":["25320"],"population":543},"geometry":{"type":"Point","coordinates":[5.846937429078009,47.111547553191485]}},{"type":"Feature","properties":{"nom":"Cademène","code":"25106","codeDepartement":"25","codeRegion":"27","codesPostaux":["25290"],"population":75},"geometry":{"type":"Point","coordinates":[6.026924140077823,47.09536311284046]}},{"type":"Feature","properties":{"nom":"Cendrey","code":"25107","codeDepartement":"25","codeRegion":"27","codesPostaux":["25640"],"population":191},"geometry":{"type":"Point","coordinates":[6.243999969696968,47.40308222727271]}},{"type":"Feature","properties":{"nom":"Cernay-l'Église","code":"25108","codeDepartement":"25","codeRegion":"27","codesPostaux":["25120"],"population":303},"geometry":{"type":"Point","coordinates":[6.834282878688525,47.25036790163928]}},{"type":"Feature","properties":{"nom":"Cessey","code":"25109","codeDepartement":"25","codeRegion":"27","codesPostaux":["25440"],"population":337},"geometry":{"type":"Point","coordinates":[5.924445625407162,47.11408373615637]}},{"type":"Feature","properties":{"nom":"Chaffois","code":"25110","codeDepartement":"25","codeRegion":"27","codesPostaux":["25300"],"population":974},"geometry":{"type":"Point","coordinates":[6.258642408536586,46.910550548780506]}},{"type":"Feature","properties":{"nom":"Chalèze","code":"25111","codeDepartement":"25","codeRegion":"27","codesPostaux":["25220"],"population":374},"geometry":{"type":"Point","coordinates":[6.09200126984127,47.26095557671958]}},{"type":"Feature","properties":{"nom":"Chalezeule","code":"25112","codeDepartement":"25","codeRegion":"27","codesPostaux":["25220"],"population":1291},"geometry":{"type":"Point","coordinates":[6.0665863937500015,47.25827378749997]}},{"type":"Feature","properties":{"nom":"Chamesey","code":"25113","codeDepartement":"25","codeRegion":"27","codesPostaux":["25380"],"population":134},"geometry":{"type":"Point","coordinates":[6.628873559322036,47.23720671610173]}},{"type":"Feature","properties":{"nom":"Chamesol","code":"25114","codeDepartement":"25","codeRegion":"27","codesPostaux":["25190"],"population":377},"geometry":{"type":"Point","coordinates":[6.848592334140426,47.343536910411636]}},{"type":"Feature","properties":{"nom":"Champagney","code":"25115","codeDepartement":"25","codeRegion":"27","codesPostaux":["25170"],"population":282},"geometry":{"type":"Point","coordinates":[5.894097080536913,47.254577503355726]}},{"type":"Feature","properties":{"nom":"Champlive","code":"25116","codeDepartement":"25","codeRegion":"27","codesPostaux":["25360"],"population":253},"geometry":{"type":"Point","coordinates":[6.2429898328358195,47.288643474626866]}},{"type":"Feature","properties":{"nom":"Champoux","code":"25117","codeDepartement":"25","codeRegion":"27","codesPostaux":["25640"],"population":91},"geometry":{"type":"Point","coordinates":[6.137383739726028,47.3416029931507]}},{"type":"Feature","properties":{"nom":"Champvans-les-Moulins","code":"25119","codeDepartement":"25","codeRegion":"27","codesPostaux":["25170"],"population":348},"geometry":{"type":"Point","coordinates":[5.9080942780748655,47.25587462032086]}},{"type":"Feature","properties":{"nom":"Chantrans","code":"25120","codeDepartement":"25","codeRegion":"27","codesPostaux":["25330"],"population":399},"geometry":{"type":"Point","coordinates":[6.1695291192893436,47.05036717512691]}},{"type":"Feature","properties":{"nom":"Chapelle-des-Bois","code":"25121","codeDepartement":"25","codeRegion":"27","codesPostaux":["25240"],"population":253},"geometry":{"type":"Point","coordinates":[6.101596815047021,46.61755531347965]}},{"type":"Feature","properties":{"nom":"Chapelle-d'Huin","code":"25122","codeDepartement":"25","codeRegion":"27","codesPostaux":["25270"],"population":510},"geometry":{"type":"Point","coordinates":[6.1800897111111155,46.936315426666646]}},{"type":"Feature","properties":{"nom":"Charmauvillers","code":"25124","codeDepartement":"25","codeRegion":"27","codesPostaux":["25470"],"population":250},"geometry":{"type":"Point","coordinates":[6.915982071161047,47.23168953932584]}},{"type":"Feature","properties":{"nom":"Charmoille","code":"25125","codeDepartement":"25","codeRegion":"27","codesPostaux":["25380"],"population":332},"geometry":{"type":"Point","coordinates":[6.666383728900263,47.23634251406649]}},{"type":"Feature","properties":{"nom":"Charnay","code":"25126","codeDepartement":"25","codeRegion":"27","codesPostaux":["25440"],"population":476},"geometry":{"type":"Point","coordinates":[5.948635277978337,47.12914471119134]}},{"type":"Feature","properties":{"nom":"Charquemont","code":"25127","codeDepartement":"25","codeRegion":"27","codesPostaux":["25140"],"population":2656},"geometry":{"type":"Point","coordinates":[6.841399634103018,47.20306094493781]}},{"type":"Feature","properties":{"nom":"Chassagne-Saint-Denis","code":"25129","codeDepartement":"25","codeRegion":"27","codesPostaux":["25290"],"population":116},"geometry":{"type":"Point","coordinates":[6.108507064748201,47.086367302158266]}},{"type":"Feature","properties":{"nom":"Châteauvieux-les-Fossés","code":"25130","codeDepartement":"25","codeRegion":"27","codesPostaux":["25840"],"population":13},"geometry":{"type":"Point","coordinates":[6.199356724299065,47.0553159906542]}},{"type":"Feature","properties":{"nom":"Châtelblanc","code":"25131","codeDepartement":"25","codeRegion":"27","codesPostaux":["25240"],"population":125},"geometry":{"type":"Point","coordinates":[6.111305652818992,46.663895916913965]}},{"type":"Feature","properties":{"nom":"Châtillon-Guyotte","code":"25132","codeDepartement":"25","codeRegion":"27","codesPostaux":["25640"],"population":127},"geometry":{"type":"Point","coordinates":[6.1698625200000015,47.33017242666667]}},{"type":"Feature","properties":{"nom":"Châtillon-le-Duc","code":"25133","codeDepartement":"25","codeRegion":"27","codesPostaux":["25870"],"population":2047},"geometry":{"type":"Point","coordinates":[6.004124605664496,47.30672435947715]}},{"type":"Feature","properties":{"nom":"Châtillon-sur-Lison","code":"25134","codeDepartement":"25","codeRegion":"27","codesPostaux":["25440"],"population":9},"geometry":{"type":"Point","coordinates":[5.980929702586206,47.07660261637928]}},{"type":"Feature","properties":{"nom":"Chaucenne","code":"25136","codeDepartement":"25","codeRegion":"27","codesPostaux":["25170"],"population":516},"geometry":{"type":"Point","coordinates":[5.8961410431034516,47.2873228275862]}},{"type":"Feature","properties":{"nom":"Les Terres-de-Chaux","code":"25138","codeDepartement":"25","codeRegion":"27","codesPostaux":["25190"],"population":142},"geometry":{"type":"Point","coordinates":[6.7291887176938445,47.317474900596444]}},{"type":"Feature","properties":{"nom":"La Chaux","code":"25139","codeDepartement":"25","codeRegion":"27","codesPostaux":["25650"],"population":528},"geometry":{"type":"Point","coordinates":[6.417069418539324,47.01878442134836]}},{"type":"Feature","properties":{"nom":"Chaux-lès-Passavant","code":"25141","codeDepartement":"25","codeRegion":"27","codesPostaux":["25530"],"population":139},"geometry":{"type":"Point","coordinates":[6.350447035532996,47.238916126903526]}},{"type":"Feature","properties":{"nom":"Chaux-Neuve","code":"25142","codeDepartement":"25","codeRegion":"27","codesPostaux":["25240"],"population":312},"geometry":{"type":"Point","coordinates":[6.143012427419354,46.65739527956992]}},{"type":"Feature","properties":{"nom":"Chay","code":"25143","codeDepartement":"25","codeRegion":"27","codesPostaux":["25440"],"population":213},"geometry":{"type":"Point","coordinates":[5.861100010204082,47.03554709183675]}},{"type":"Feature","properties":{"nom":"Chazot","code":"25145","codeDepartement":"25","codeRegion":"27","codesPostaux":["25430"],"population":118},"geometry":{"type":"Point","coordinates":[6.541416642553192,47.32944636595742]}},{"type":"Feature","properties":{"nom":"Chemaudin et Vaux","code":"25147","codeDepartement":"25","codeRegion":"27","codesPostaux":["25320","25770"],"population":1890},"geometry":{"type":"Point","coordinates":[5.887139382271467,47.22954365650967]}},{"type":"Feature","properties":{"nom":"La Chenalotte","code":"25148","codeDepartement":"25","codeRegion":"27","codesPostaux":["25500"],"population":487},"geometry":{"type":"Point","coordinates":[6.686789380116961,47.108121742690045]}},{"type":"Feature","properties":{"nom":"Chenecey-Buillon","code":"25149","codeDepartement":"25","codeRegion":"27","codesPostaux":["25440"],"population":520},"geometry":{"type":"Point","coordinates":[5.973628772102159,47.13752531630651]}},{"type":"Feature","properties":{"nom":"Chevigney-sur-l'Ognon","code":"25150","codeDepartement":"25","codeRegion":"27","codesPostaux":["25170"],"population":285},"geometry":{"type":"Point","coordinates":[5.847825168384882,47.294748797250826]}},{"type":"Feature","properties":{"nom":"Chevigney-lès-Vercel","code":"25151","codeDepartement":"25","codeRegion":"27","codesPostaux":["25530"],"population":127},"geometry":{"type":"Point","coordinates":[6.364490495575225,47.167147623893825]}},{"type":"Feature","properties":{"nom":"La Chevillotte","code":"25152","codeDepartement":"25","codeRegion":"27","codesPostaux":["25620"],"population":143},"geometry":{"type":"Point","coordinates":[6.154639459330142,47.22087055023922]}},{"type":"Feature","properties":{"nom":"Chevroz","code":"25153","codeDepartement":"25","codeRegion":"27","codesPostaux":["25870"],"population":130},"geometry":{"type":"Point","coordinates":[5.999040416666665,47.32987042499999]}},{"type":"Feature","properties":{"nom":"Chouzelot","code":"25154","codeDepartement":"25","codeRegion":"27","codesPostaux":["25440"],"population":269},"geometry":{"type":"Point","coordinates":[5.906699644144149,47.121237076576584]}},{"type":"Feature","properties":{"nom":"Cléron","code":"25155","codeDepartement":"25","codeRegion":"27","codesPostaux":["25330"],"population":315},"geometry":{"type":"Point","coordinates":[6.074114653465345,47.08024771570015]}},{"type":"Feature","properties":{"nom":"Pays-de-Clerval","code":"25156","codeDepartement":"25","codeRegion":"27","codesPostaux":["25340"],"population":1231},"geometry":{"type":"Point","coordinates":[6.50339663802083,47.38728255468751]}},{"type":"Feature","properties":{"nom":"La Cluse-et-Mijoux","code":"25157","codeDepartement":"25","codeRegion":"27","codesPostaux":["25300"],"population":1312},"geometry":{"type":"Point","coordinates":[6.381076029333326,46.854693069333344]}},{"type":"Feature","properties":{"nom":"Colombier-Fontaine","code":"25159","codeDepartement":"25","codeRegion":"27","codesPostaux":["25260"],"population":1300},"geometry":{"type":"Point","coordinates":[6.6912938505154615,47.44847386082476]}},{"type":"Feature","properties":{"nom":"Les Combes","code":"25160","codeDepartement":"25","codeRegion":"27","codesPostaux":["25500"],"population":731},"geometry":{"type":"Point","coordinates":[6.534763942238268,47.046780700361]}},{"type":"Feature","properties":{"nom":"Consolation-Maisonnettes","code":"25161","codeDepartement":"25","codeRegion":"27","codesPostaux":["25390"],"population":34},"geometry":{"type":"Point","coordinates":[6.6050530747126395,47.152610637931055]}},{"type":"Feature","properties":{"nom":"Corcelles-Ferrières","code":"25162","codeDepartement":"25","codeRegion":"27","codesPostaux":["25410"],"population":199},"geometry":{"type":"Point","coordinates":[5.802545932126694,47.22554393212671]}},{"type":"Feature","properties":{"nom":"Corcelle-Mieslot","code":"25163","codeDepartement":"25","codeRegion":"27","codesPostaux":["25640"],"population":108},"geometry":{"type":"Point","coordinates":[6.185143340314134,47.35986572774869]}},{"type":"Feature","properties":{"nom":"Corcondray","code":"25164","codeDepartement":"25","codeRegion":"27","codesPostaux":["25410"],"population":144},"geometry":{"type":"Point","coordinates":[5.82863425230769,47.2286085323077]}},{"type":"Feature","properties":{"nom":"Côtebrune","code":"25166","codeDepartement":"25","codeRegion":"27","codesPostaux":["25360"],"population":77},"geometry":{"type":"Point","coordinates":[6.3117766418918935,47.25272853378378]}},{"type":"Feature","properties":{"nom":"Courcelles-lès-Montbéliard","code":"25170","codeDepartement":"25","codeRegion":"27","codesPostaux":["25420"],"population":1222},"geometry":{"type":"Point","coordinates":[6.781831539325845,47.49778424719101]}},{"type":"Feature","properties":{"nom":"Courcelles","code":"25171","codeDepartement":"25","codeRegion":"27","codesPostaux":["25440"],"population":108},"geometry":{"type":"Point","coordinates":[5.963137415300546,47.10192822950822]}},{"type":"Feature","properties":{"nom":"Courchapon","code":"25172","codeDepartement":"25","codeRegion":"27","codesPostaux":["25170"],"population":205},"geometry":{"type":"Point","coordinates":[5.749649556603775,47.25851145911952]}},{"type":"Feature","properties":{"nom":"Cour-Saint-Maurice","code":"25173","codeDepartement":"25","codeRegion":"27","codesPostaux":["25380"],"population":158},"geometry":{"type":"Point","coordinates":[6.714129251336897,47.26286978074864]}},{"type":"Feature","properties":{"nom":"Courtefontaine","code":"25174","codeDepartement":"25","codeRegion":"27","codesPostaux":["25470"],"population":248},"geometry":{"type":"Point","coordinates":[6.915675661202187,47.321437226775934]}},{"type":"Feature","properties":{"nom":"Courtetain-et-Salans","code":"25175","codeDepartement":"25","codeRegion":"27","codesPostaux":["25530"],"population":84},"geometry":{"type":"Point","coordinates":[6.4249129764151025,47.25681419339624]}},{"type":"Feature","properties":{"nom":"Courvières","code":"25176","codeDepartement":"25","codeRegion":"27","codesPostaux":["25560"],"population":315},"geometry":{"type":"Point","coordinates":[6.104002920577619,46.87199411191334]}},{"type":"Feature","properties":{"nom":"Crosey-le-Grand","code":"25177","codeDepartement":"25","codeRegion":"27","codesPostaux":["25340"],"population":152},"geometry":{"type":"Point","coordinates":[6.525232562130177,47.34696728402367]}},{"type":"Feature","properties":{"nom":"Crosey-le-Petit","code":"25178","codeDepartement":"25","codeRegion":"27","codesPostaux":["25340"],"population":141},"geometry":{"type":"Point","coordinates":[6.484703658008658,47.34357938961039]}},{"type":"Feature","properties":{"nom":"Le Crouzet","code":"25179","codeDepartement":"25","codeRegion":"27","codesPostaux":["25240"],"population":57},"geometry":{"type":"Point","coordinates":[6.138027154929578,46.70557202816902]}},{"type":"Feature","properties":{"nom":"Crouzet-Migette","code":"25180","codeDepartement":"25","codeRegion":"27","codesPostaux":["25270"],"population":118},"geometry":{"type":"Point","coordinates":[6.006499203208556,46.95827387433151]}},{"type":"Feature","properties":{"nom":"Cubrial","code":"25181","codeDepartement":"25","codeRegion":"27","codesPostaux":["25680"],"population":131},"geometry":{"type":"Point","coordinates":[6.401467828193829,47.5003369030837]}},{"type":"Feature","properties":{"nom":"Cubry","code":"25182","codeDepartement":"25","codeRegion":"27","codesPostaux":["25680"],"population":87},"geometry":{"type":"Point","coordinates":[6.425000137724545,47.49964298802392]}},{"type":"Feature","properties":{"nom":"Cusance","code":"25183","codeDepartement":"25","codeRegion":"27","codesPostaux":["25110"],"population":69},"geometry":{"type":"Point","coordinates":[6.435214684210529,47.3235837165992]}},{"type":"Feature","properties":{"nom":"Cuse-et-Adrisans","code":"25184","codeDepartement":"25","codeRegion":"27","codesPostaux":["25680"],"population":283},"geometry":{"type":"Point","coordinates":[6.388517370370371,47.48166519444443]}},{"type":"Feature","properties":{"nom":"Cussey-sur-Lison","code":"25185","codeDepartement":"25","codeRegion":"27","codesPostaux":["25440"],"population":66},"geometry":{"type":"Point","coordinates":[5.967393408450706,47.06161543661972]}},{"type":"Feature","properties":{"nom":"Cussey-sur-l'Ognon","code":"25186","codeDepartement":"25","codeRegion":"27","codesPostaux":["25870"],"population":1029},"geometry":{"type":"Point","coordinates":[5.941326975369457,47.329803241379274]}},{"type":"Feature","properties":{"nom":"Dambelin","code":"25187","codeDepartement":"25","codeRegion":"27","codesPostaux":["25150"],"population":490},"geometry":{"type":"Point","coordinates":[6.672674592493304,47.37408626005364]}},{"type":"Feature","properties":{"nom":"Dambenois","code":"25188","codeDepartement":"25","codeRegion":"27","codesPostaux":["25600"],"population":740},"geometry":{"type":"Point","coordinates":[6.872221277108434,47.54377712048192]}},{"type":"Feature","properties":{"nom":"Dammartin-les-Templiers","code":"25189","codeDepartement":"25","codeRegion":"27","codesPostaux":["25110"],"population":206},"geometry":{"type":"Point","coordinates":[6.2836602450592896,47.29578682213441]}},{"type":"Feature","properties":{"nom":"Dampierre-les-Bois","code":"25190","codeDepartement":"25","codeRegion":"27","codesPostaux":["25490"],"population":1654},"geometry":{"type":"Point","coordinates":[6.9184418947368425,47.50888000000002]}},{"type":"Feature","properties":{"nom":"Dampierre-sur-le-Doubs","code":"25191","codeDepartement":"25","codeRegion":"27","codesPostaux":["25420"],"population":460},"geometry":{"type":"Point","coordinates":[6.733009250000003,47.4647690135135]}},{"type":"Feature","properties":{"nom":"Dampjoux","code":"25192","codeDepartement":"25","codeRegion":"27","codesPostaux":["25190"],"population":176},"geometry":{"type":"Point","coordinates":[6.7447107983193275,47.339233924369765]}},{"type":"Feature","properties":{"nom":"Damprichard","code":"25193","codeDepartement":"25","codeRegion":"27","codesPostaux":["25450"],"population":1886},"geometry":{"type":"Point","coordinates":[6.874882336206895,47.23678179741377]}},{"type":"Feature","properties":{"nom":"Dannemarie","code":"25194","codeDepartement":"25","codeRegion":"27","codesPostaux":["25310"],"population":114},"geometry":{"type":"Point","coordinates":[6.898369039682537,47.39087953968253]}},{"type":"Feature","properties":{"nom":"Dannemarie-sur-Crète","code":"25195","codeDepartement":"25","codeRegion":"27","codesPostaux":["25410"],"population":1448},"geometry":{"type":"Point","coordinates":[5.864066621052632,47.20873560526314]}},{"type":"Feature","properties":{"nom":"Dasle","code":"25196","codeDepartement":"25","codeRegion":"27","codesPostaux":["25230"],"population":1423},"geometry":{"type":"Point","coordinates":[6.897583427586207,47.48251502758618]}},{"type":"Feature","properties":{"nom":"Deluz","code":"25197","codeDepartement":"25","codeRegion":"27","codesPostaux":["25960"],"population":623},"geometry":{"type":"Point","coordinates":[6.196392134502926,47.29823432748538]}},{"type":"Feature","properties":{"nom":"Désandans","code":"25198","codeDepartement":"25","codeRegion":"27","codesPostaux":["25750"],"population":740},"geometry":{"type":"Point","coordinates":[6.672617887640446,47.538215269662935]}},{"type":"Feature","properties":{"nom":"Déservillers","code":"25199","codeDepartement":"25","codeRegion":"27","codesPostaux":["25330"],"population":341},"geometry":{"type":"Point","coordinates":[6.074748012631582,46.998980637894775]}},{"type":"Feature","properties":{"nom":"Devecey","code":"25200","codeDepartement":"25","codeRegion":"27","codesPostaux":["25870"],"population":1444},"geometry":{"type":"Point","coordinates":[6.016219282608695,47.32292607391301]}},{"type":"Feature","properties":{"nom":"Dommartin","code":"25201","codeDepartement":"25","codeRegion":"27","codesPostaux":["25300"],"population":694},"geometry":{"type":"Point","coordinates":[6.315351016666669,46.9262919]}},{"type":"Feature","properties":{"nom":"Dompierre-les-Tilleuls","code":"25202","codeDepartement":"25","codeRegion":"27","codesPostaux":["25560"],"population":267},"geometry":{"type":"Point","coordinates":[6.159420834951456,46.88909230097087]}},{"type":"Feature","properties":{"nom":"Domprel","code":"25203","codeDepartement":"25","codeRegion":"27","codesPostaux":["25510"],"population":174},"geometry":{"type":"Point","coordinates":[6.4828565388349535,47.19506083495147]}},{"type":"Feature","properties":{"nom":"Doubs","code":"25204","codeDepartement":"25","codeRegion":"27","codesPostaux":["25300"],"population":2968},"geometry":{"type":"Point","coordinates":[6.363352406698564,46.93467748325355]}},{"type":"Feature","properties":{"nom":"Dung","code":"25207","codeDepartement":"25","codeRegion":"27","codesPostaux":["25550"],"population":650},"geometry":{"type":"Point","coordinates":[6.741638153061225,47.50731536734693]}},{"type":"Feature","properties":{"nom":"Durnes","code":"25208","codeDepartement":"25","codeRegion":"27","codesPostaux":["25580"],"population":177},"geometry":{"type":"Point","coordinates":[6.220620100313471,47.10811535736677]}},{"type":"Feature","properties":{"nom":"Échay","code":"25209","codeDepartement":"25","codeRegion":"27","codesPostaux":["25440"],"population":128},"geometry":{"type":"Point","coordinates":[5.953257205607474,47.04418757009345]}},{"type":"Feature","properties":{"nom":"Échenans","code":"25210","codeDepartement":"25","codeRegion":"27","codesPostaux":["25550"],"population":158},"geometry":{"type":"Point","coordinates":[6.692317653846154,47.528191346153854]}},{"type":"Feature","properties":{"nom":"Échevannes","code":"25211","codeDepartement":"25","codeRegion":"27","codesPostaux":["25580"],"population":89},"geometry":{"type":"Point","coordinates":[6.2275106203703725,47.072431740740754]}},{"type":"Feature","properties":{"nom":"École-Valentin","code":"25212","codeDepartement":"25","codeRegion":"27","codesPostaux":["25480"],"population":2542},"geometry":{"type":"Point","coordinates":[5.986913883720931,47.27519599418608]}},{"type":"Feature","properties":{"nom":"Les Écorces","code":"25213","codeDepartement":"25","codeRegion":"27","codesPostaux":["25140"],"population":714},"geometry":{"type":"Point","coordinates":[6.798877420634918,47.206325539682545]}},{"type":"Feature","properties":{"nom":"Écot","code":"25214","codeDepartement":"25","codeRegion":"27","codesPostaux":["25150"],"population":506},"geometry":{"type":"Point","coordinates":[6.730692475806451,47.42274159274193]}},{"type":"Feature","properties":{"nom":"L'Écouvotte","code":"25215","codeDepartement":"25","codeRegion":"27","codesPostaux":["25640"],"population":93},"geometry":{"type":"Point","coordinates":[6.252299395348838,47.343462151162775]}},{"type":"Feature","properties":{"nom":"Écurcey","code":"25216","codeDepartement":"25","codeRegion":"27","codesPostaux":["25150"],"population":270},"geometry":{"type":"Point","coordinates":[6.806878268774703,47.40410914229246]}},{"type":"Feature","properties":{"nom":"Émagny","code":"25217","codeDepartement":"25","codeRegion":"27","codesPostaux":["25170"],"population":591},"geometry":{"type":"Point","coordinates":[5.865637790055252,47.303347812154705]}},{"type":"Feature","properties":{"nom":"Épenouse","code":"25218","codeDepartement":"25","codeRegion":"27","codesPostaux":["25530"],"population":148},"geometry":{"type":"Point","coordinates":[6.398542170731707,47.21387419512197]}},{"type":"Feature","properties":{"nom":"Épenoy","code":"25219","codeDepartement":"25","codeRegion":"27","codesPostaux":["25800"],"population":631},"geometry":{"type":"Point","coordinates":[6.3841550326086915,47.13386732880436]}},{"type":"Feature","properties":{"nom":"Épeugney","code":"25220","codeDepartement":"25","codeRegion":"27","codesPostaux":["25290"],"population":594},"geometry":{"type":"Point","coordinates":[6.0193114922118385,47.128267719626194]}},{"type":"Feature","properties":{"nom":"Esnans","code":"25221","codeDepartement":"25","codeRegion":"27","codesPostaux":["25110"],"population":66},"geometry":{"type":"Point","coordinates":[6.324494801282049,47.33201992948718]}},{"type":"Feature","properties":{"nom":"Étalans","code":"25222","codeDepartement":"25","codeRegion":"27","codesPostaux":["25580","25620"],"population":1532},"geometry":{"type":"Point","coordinates":[6.249135425605535,47.15825426297579]}},{"type":"Feature","properties":{"nom":"Éternoz","code":"25223","codeDepartement":"25","codeRegion":"27","codesPostaux":["25330"],"population":337},"geometry":{"type":"Point","coordinates":[6.003233582712365,47.01336806408348]}},{"type":"Feature","properties":{"nom":"Étouvans","code":"25224","codeDepartement":"25","codeRegion":"27","codesPostaux":["25260"],"population":822},"geometry":{"type":"Point","coordinates":[6.7199147021276575,47.45688672340426]}},{"type":"Feature","properties":{"nom":"Étrabonne","code":"25225","codeDepartement":"25","codeRegion":"27","codesPostaux":["25170"],"population":193},"geometry":{"type":"Point","coordinates":[5.737645720257237,47.23461418327975]}},{"type":"Feature","properties":{"nom":"Étrappe","code":"25226","codeDepartement":"25","codeRegion":"27","codesPostaux":["25250"],"population":213},"geometry":{"type":"Point","coordinates":[6.577185640718561,47.4684240838323]}},{"type":"Feature","properties":{"nom":"Étray","code":"25227","codeDepartement":"25","codeRegion":"27","codesPostaux":["25800"],"population":262},"geometry":{"type":"Point","coordinates":[6.331031154518952,47.1286811282799]}},{"type":"Feature","properties":{"nom":"Étupes","code":"25228","codeDepartement":"25","codeRegion":"27","codesPostaux":["25460"],"population":3729},"geometry":{"type":"Point","coordinates":[6.875634942307693,47.50639080769231]}},{"type":"Feature","properties":{"nom":"Évillers","code":"25229","codeDepartement":"25","codeRegion":"27","codesPostaux":["25520"],"population":356},"geometry":{"type":"Point","coordinates":[6.222039744444446,46.99638297777778]}},{"type":"Feature","properties":{"nom":"Exincourt","code":"25230","codeDepartement":"25","codeRegion":"27","codesPostaux":["25400"],"population":3230},"geometry":{"type":"Point","coordinates":[6.835476500000001,47.50029419047618]}},{"type":"Feature","properties":{"nom":"Eysson","code":"25231","codeDepartement":"25","codeRegion":"27","codesPostaux":["25530"],"population":114},"geometry":{"type":"Point","coordinates":[6.4256965103734425,47.20413142323656]}},{"type":"Feature","properties":{"nom":"Faimbe","code":"25232","codeDepartement":"25","codeRegion":"27","codesPostaux":["25250"],"population":110},"geometry":{"type":"Point","coordinates":[6.615214987341773,47.485999569620226]}},{"type":"Feature","properties":{"nom":"Fallerans","code":"25233","codeDepartement":"25","codeRegion":"27","codesPostaux":["25580"],"population":282},"geometry":{"type":"Point","coordinates":[6.291825768637532,47.14188170951158]}},{"type":"Feature","properties":{"nom":"Ferrières-le-Lac","code":"25234","codeDepartement":"25","codeRegion":"27","codesPostaux":["25470"],"population":170},"geometry":{"type":"Point","coordinates":[6.889195089430898,47.26771340650408]}},{"type":"Feature","properties":{"nom":"Ferrières-les-Bois","code":"25235","codeDepartement":"25","codeRegion":"27","codesPostaux":["25410"],"population":318},"geometry":{"type":"Point","coordinates":[5.7997887027027,47.2102016162162]}},{"type":"Feature","properties":{"nom":"Fertans","code":"25236","codeDepartement":"25","codeRegion":"27","codesPostaux":["25330"],"population":259},"geometry":{"type":"Point","coordinates":[6.069006925133694,47.05634447860965]}},{"type":"Feature","properties":{"nom":"Fesches-le-Châtel","code":"25237","codeDepartement":"25","codeRegion":"27","codesPostaux":["25490"],"population":2199},"geometry":{"type":"Point","coordinates":[6.9018146408450685,47.52170566901407]}},{"type":"Feature","properties":{"nom":"Fessevillers","code":"25238","codeDepartement":"25","codeRegion":"27","codesPostaux":["25470"],"population":159},"geometry":{"type":"Point","coordinates":[6.917102870813397,47.277346894736816]}},{"type":"Feature","properties":{"nom":"Feule","code":"25239","codeDepartement":"25","codeRegion":"27","codesPostaux":["25190"],"population":180},"geometry":{"type":"Point","coordinates":[6.735352076923074,47.34822239423079]}},{"type":"Feature","properties":{"nom":"Les Fins","code":"25240","codeDepartement":"25","codeRegion":"27","codesPostaux":["25500"],"population":3075},"geometry":{"type":"Point","coordinates":[6.627695425956736,47.07578797004993]}},{"type":"Feature","properties":{"nom":"Flagey","code":"25241","codeDepartement":"25","codeRegion":"27","codesPostaux":["25330"],"population":159},"geometry":{"type":"Point","coordinates":[6.110322135802467,47.046866095679]}},{"type":"Feature","properties":{"nom":"Flagey-Rigney","code":"25242","codeDepartement":"25","codeRegion":"27","codesPostaux":["25640"],"population":110},"geometry":{"type":"Point","coordinates":[6.2187402675159245,47.416197127388514]}},{"type":"Feature","properties":{"nom":"Flangebouche","code":"25243","codeDepartement":"25","codeRegion":"27","codesPostaux":["25390"],"population":774},"geometry":{"type":"Point","coordinates":[6.47520699135447,47.12156329106628]}},{"type":"Feature","properties":{"nom":"Fleurey","code":"25244","codeDepartement":"25","codeRegion":"27","codesPostaux":["25190"],"population":84},"geometry":{"type":"Point","coordinates":[6.782711931914894,47.29899523404256]}},{"type":"Feature","properties":{"nom":"Fontain","code":"25245","codeDepartement":"25","codeRegion":"27","codesPostaux":["25660","25720"],"population":1289},"geometry":{"type":"Point","coordinates":[6.031633214999996,47.1918078525]}},{"type":"Feature","properties":{"nom":"Fontaine-lès-Clerval","code":"25246","codeDepartement":"25","codeRegion":"27","codesPostaux":["25340"],"population":292},"geometry":{"type":"Point","coordinates":[6.4645471187500005,47.418608878124985]}},{"type":"Feature","properties":{"nom":"Fontenelle-Montby","code":"25247","codeDepartement":"25","codeRegion":"27","codesPostaux":["25340"],"population":93},"geometry":{"type":"Point","coordinates":[6.410393474708169,47.44741142801562]}},{"type":"Feature","properties":{"nom":"Les Fontenelles","code":"25248","codeDepartement":"25","codeRegion":"27","codesPostaux":["25210"],"population":567},"geometry":{"type":"Point","coordinates":[6.750976359999994,47.19448634666667]}},{"type":"Feature","properties":{"nom":"Fontenotte","code":"25249","codeDepartement":"25","codeRegion":"27","codesPostaux":["25110"],"population":62},"geometry":{"type":"Point","coordinates":[6.315994093596057,47.37472413300491]}},{"type":"Feature","properties":{"nom":"Fourbanne","code":"25251","codeDepartement":"25","codeRegion":"27","codesPostaux":["25110"],"population":173},"geometry":{"type":"Point","coordinates":[6.306921533980583,47.337227378640776]}},{"type":"Feature","properties":{"nom":"Fourcatier-et-Maison-Neuve","code":"25252","codeDepartement":"25","codeRegion":"27","codesPostaux":["25370"],"population":107},"geometry":{"type":"Point","coordinates":[6.316804715596328,46.761723376146755]}},{"type":"Feature","properties":{"nom":"Fourg","code":"25253","codeDepartement":"25","codeRegion":"27","codesPostaux":["25440"],"population":364},"geometry":{"type":"Point","coordinates":[5.809875370535715,47.09748180803572]}},{"type":"Feature","properties":{"nom":"Les Fourgs","code":"25254","codeDepartement":"25","codeRegion":"27","codesPostaux":["25300"],"population":1345},"geometry":{"type":"Point","coordinates":[6.403121175965668,46.844548596566526]}},{"type":"Feature","properties":{"nom":"Fournet-Blancheroche","code":"25255","codeDepartement":"25","codeRegion":"27","codesPostaux":["25140"],"population":366},"geometry":{"type":"Point","coordinates":[6.833481545994065,47.170955821958415]}},{"type":"Feature","properties":{"nom":"Frambouhans","code":"25256","codeDepartement":"25","codeRegion":"27","codesPostaux":["25140"],"population":892},"geometry":{"type":"Point","coordinates":[6.775956858381504,47.20550600867053]}},{"type":"Feature","properties":{"nom":"Franey","code":"25257","codeDepartement":"25","codeRegion":"27","codesPostaux":["25170"],"population":275},"geometry":{"type":"Point","coordinates":[5.813655578431374,47.25892961764707]}},{"type":"Feature","properties":{"nom":"Franois","code":"25258","codeDepartement":"25","codeRegion":"27","codesPostaux":["25770"],"population":2316},"geometry":{"type":"Point","coordinates":[5.920079915929205,47.22785458407078]}},{"type":"Feature","properties":{"nom":"Frasne","code":"25259","codeDepartement":"25","codeRegion":"27","codesPostaux":["25560"],"population":1950},"geometry":{"type":"Point","coordinates":[6.144858082474229,46.85171303780065]}},{"type":"Feature","properties":{"nom":"Froidevaux","code":"25261","codeDepartement":"25","codeRegion":"27","codesPostaux":["25190"],"population":72},"geometry":{"type":"Point","coordinates":[6.692100292452834,47.30095713679246]}},{"type":"Feature","properties":{"nom":"Fuans","code":"25262","codeDepartement":"25","codeRegion":"27","codesPostaux":["25390"],"population":492},"geometry":{"type":"Point","coordinates":[6.590809699745545,47.12696109160307]}},{"type":"Feature","properties":{"nom":"Gellin","code":"25263","codeDepartement":"25","codeRegion":"27","codesPostaux":["25240"],"population":241},"geometry":{"type":"Point","coordinates":[6.241273318840589,46.724782438923434]}},{"type":"Feature","properties":{"nom":"Gémonval","code":"25264","codeDepartement":"25","codeRegion":"27","codesPostaux":["25250"],"population":84},"geometry":{"type":"Point","coordinates":[6.589653813725486,47.53369240196078]}},{"type":"Feature","properties":{"nom":"Geneuille","code":"25265","codeDepartement":"25","codeRegion":"27","codesPostaux":["25870"],"population":1342},"geometry":{"type":"Point","coordinates":[5.971889352459014,47.32052127459014]}},{"type":"Feature","properties":{"nom":"Geney","code":"25266","codeDepartement":"25","codeRegion":"27","codesPostaux":["25250"],"population":120},"geometry":{"type":"Point","coordinates":[6.562917390243903,47.48289244512193]}},{"type":"Feature","properties":{"nom":"Gennes","code":"25267","codeDepartement":"25","codeRegion":"27","codesPostaux":["25660"],"population":680},"geometry":{"type":"Point","coordinates":[6.128033630769234,47.244965241025625]}},{"type":"Feature","properties":{"nom":"Germéfontaine","code":"25268","codeDepartement":"25","codeRegion":"27","codesPostaux":["25510"],"population":129},"geometry":{"type":"Point","coordinates":[6.486929503875969,47.22586117054264]}},{"type":"Feature","properties":{"nom":"Germondans","code":"25269","codeDepartement":"25","codeRegion":"27","codesPostaux":["25640"],"population":59},"geometry":{"type":"Point","coordinates":[6.197902478991594,47.415237327731056]}},{"type":"Feature","properties":{"nom":"Gevresin","code":"25270","codeDepartement":"25","codeRegion":"27","codesPostaux":["25270"],"population":118},"geometry":{"type":"Point","coordinates":[6.0441082802547745,46.96704854140127]}},{"type":"Feature","properties":{"nom":"Gilley","code":"25271","codeDepartement":"25","codeRegion":"27","codesPostaux":["25650"],"population":1636},"geometry":{"type":"Point","coordinates":[6.485547164285718,47.052359821428674]}},{"type":"Feature","properties":{"nom":"Glamondans","code":"25273","codeDepartement":"25","codeRegion":"27","codesPostaux":["25360"],"population":214},"geometry":{"type":"Point","coordinates":[6.28533203238866,47.2651488380567]}},{"type":"Feature","properties":{"nom":"Glay","code":"25274","codeDepartement":"25","codeRegion":"27","codesPostaux":["25310"],"population":341},"geometry":{"type":"Point","coordinates":[6.896323466666666,47.401571076923105]}},{"type":"Feature","properties":{"nom":"Glère","code":"25275","codeDepartement":"25","codeRegion":"27","codesPostaux":["25190"],"population":223},"geometry":{"type":"Point","coordinates":[6.98953614722753,47.34411614722752]}},{"type":"Feature","properties":{"nom":"Gondenans-Montby","code":"25276","codeDepartement":"25","codeRegion":"27","codesPostaux":["25340"],"population":175},"geometry":{"type":"Point","coordinates":[6.461562321678319,47.44890159906763]}},{"type":"Feature","properties":{"nom":"Gondenans-les-Moulins","code":"25277","codeDepartement":"25","codeRegion":"27","codesPostaux":["25680"],"population":75},"geometry":{"type":"Point","coordinates":[6.381079381132077,47.46803600377357]}},{"type":"Feature","properties":{"nom":"Gonsans","code":"25278","codeDepartement":"25","codeRegion":"27","codesPostaux":["25360"],"population":572},"geometry":{"type":"Point","coordinates":[6.298336801652893,47.227889796143224]}},{"type":"Feature","properties":{"nom":"Gouhelans","code":"25279","codeDepartement":"25","codeRegion":"27","codesPostaux":["25680"],"population":114},"geometry":{"type":"Point","coordinates":[6.355896577259475,47.455208396501455]}},{"type":"Feature","properties":{"nom":"Goumois","code":"25280","codeDepartement":"25","codeRegion":"27","codesPostaux":["25470"],"population":166},"geometry":{"type":"Point","coordinates":[6.940756964824122,47.265607718592946]}},{"type":"Feature","properties":{"nom":"Goux-lès-Dambelin","code":"25281","codeDepartement":"25","codeRegion":"27","codesPostaux":["25150"],"population":285},"geometry":{"type":"Point","coordinates":[6.6762016785714335,47.394650261904765]}},{"type":"Feature","properties":{"nom":"Goux-les-Usiers","code":"25282","codeDepartement":"25","codeRegion":"27","codesPostaux":["25520"],"population":728},"geometry":{"type":"Point","coordinates":[6.295115056818184,46.98123218181819]}},{"type":"Feature","properties":{"nom":"Goux-sous-Landet","code":"25283","codeDepartement":"25","codeRegion":"27","codesPostaux":["25440"],"population":77},"geometry":{"type":"Point","coordinates":[5.930510652439026,47.08316481707316]}},{"type":"Feature","properties":{"nom":"Grand-Charmont","code":"25284","codeDepartement":"25","codeRegion":"27","codesPostaux":["25200"],"population":5641},"geometry":{"type":"Point","coordinates":[6.823557349999998,47.530584069999996]}},{"type":"Feature","properties":{"nom":"Grand'Combe-Châteleu","code":"25285","codeDepartement":"25","codeRegion":"27","codesPostaux":["25570"],"population":1492},"geometry":{"type":"Point","coordinates":[6.558868006976738,47.01175044069772]}},{"type":"Feature","properties":{"nom":"Grand'Combe-des-Bois","code":"25286","codeDepartement":"25","codeRegion":"27","codesPostaux":["25210"],"population":138},"geometry":{"type":"Point","coordinates":[6.772951470852017,47.128762730941645]}},{"type":"Feature","properties":{"nom":"Grandfontaine","code":"25287","codeDepartement":"25","codeRegion":"27","codesPostaux":["25320"],"population":1587},"geometry":{"type":"Point","coordinates":[5.905522071428569,47.19778115966387]}},{"type":"Feature","properties":{"nom":"Fournets-Luisans","code":"25288","codeDepartement":"25","codeRegion":"27","codesPostaux":["25390"],"population":684},"geometry":{"type":"Point","coordinates":[6.5638149733146,47.10407833567416]}},{"type":"Feature","properties":{"nom":"Grandfontaine-sur-Creuse","code":"25289","codeDepartement":"25","codeRegion":"27","codesPostaux":["25510"],"population":72},"geometry":{"type":"Point","coordinates":[6.454623588607593,47.184457632911396]}},{"type":"Feature","properties":{"nom":"La Grange","code":"25290","codeDepartement":"25","codeRegion":"27","codesPostaux":["25380"],"population":93},"geometry":{"type":"Point","coordinates":[6.673010384615383,47.28350025274726]}},{"type":"Feature","properties":{"nom":"Granges-Narboz","code":"25293","codeDepartement":"25","codeRegion":"27","codesPostaux":["25300"],"population":1194},"geometry":{"type":"Point","coordinates":[6.306473677777778,46.881511514814804]}},{"type":"Feature","properties":{"nom":"Les Grangettes","code":"25295","codeDepartement":"25","codeRegion":"27","codesPostaux":["25160"],"population":274},"geometry":{"type":"Point","coordinates":[6.311260529411764,46.83302795098037]}},{"type":"Feature","properties":{"nom":"Les Gras","code":"25296","codeDepartement":"25","codeRegion":"27","codesPostaux":["25790"],"population":811},"geometry":{"type":"Point","coordinates":[6.545688474201475,46.99159409582311]}},{"type":"Feature","properties":{"nom":"Le Gratteris","code":"25297","codeDepartement":"25","codeRegion":"27","codesPostaux":["25620"],"population":179},"geometry":{"type":"Point","coordinates":[6.127618824074073,47.18040299999999]}},{"type":"Feature","properties":{"nom":"Grosbois","code":"25298","codeDepartement":"25","codeRegion":"27","codesPostaux":["25110"],"population":235},"geometry":{"type":"Point","coordinates":[6.304469907284771,47.34840978145696]}},{"type":"Feature","properties":{"nom":"Guillon-les-Bains","code":"25299","codeDepartement":"25","codeRegion":"27","codesPostaux":["25110"],"population":104},"geometry":{"type":"Point","coordinates":[6.395001394736847,47.316647531578944]}},{"type":"Feature","properties":{"nom":"Guyans-Durnes","code":"25300","codeDepartement":"25","codeRegion":"27","codesPostaux":["25580"],"population":275},"geometry":{"type":"Point","coordinates":[6.240558884462151,47.12944932270915]}},{"type":"Feature","properties":{"nom":"Guyans-Vennes","code":"25301","codeDepartement":"25","codeRegion":"27","codesPostaux":["25390"],"population":822},"geometry":{"type":"Point","coordinates":[6.593261692995524,47.16385954694479]}},{"type":"Feature","properties":{"nom":"Hauterive-la-Fresse","code":"25303","codeDepartement":"25","codeRegion":"27","codesPostaux":["25650"],"population":222},"geometry":{"type":"Point","coordinates":[6.45513756637168,46.96591205309734]}},{"type":"Feature","properties":{"nom":"Hérimoncourt","code":"25304","codeDepartement":"25","codeRegion":"27","codesPostaux":["25310"],"population":3640},"geometry":{"type":"Point","coordinates":[6.884737898437501,47.434990171875015]}},{"type":"Feature","properties":{"nom":"L'Hôpital-du-Grosbois","code":"25305","codeDepartement":"25","codeRegion":"27","codesPostaux":["25620"],"population":593},"geometry":{"type":"Point","coordinates":[6.210155394117646,47.18162295882354]}},{"type":"Feature","properties":{"nom":"L'Hôpital-Saint-Lieffroy","code":"25306","codeDepartement":"25","codeRegion":"27","codesPostaux":["25340"],"population":113},"geometry":{"type":"Point","coordinates":[6.456662551724139,47.398983353448266]}},{"type":"Feature","properties":{"nom":"Les Hôpitaux-Neufs","code":"25307","codeDepartement":"25","codeRegion":"27","codesPostaux":["25370"],"population":885},"geometry":{"type":"Point","coordinates":[6.386314720588234,46.783229441176466]}},{"type":"Feature","properties":{"nom":"Les Hôpitaux-Vieux","code":"25308","codeDepartement":"25","codeRegion":"27","codesPostaux":["25370"],"population":441},"geometry":{"type":"Point","coordinates":[6.382518112299465,46.801592203208536]}},{"type":"Feature","properties":{"nom":"Houtaud","code":"25309","codeDepartement":"25","codeRegion":"27","codesPostaux":["25300"],"population":1074},"geometry":{"type":"Point","coordinates":[6.297436679245281,46.91512607547171]}},{"type":"Feature","properties":{"nom":"Huanne-Montmartin","code":"25310","codeDepartement":"25","codeRegion":"27","codesPostaux":["25680"],"population":82},"geometry":{"type":"Point","coordinates":[6.341536561403512,47.430888249999974]}},{"type":"Feature","properties":{"nom":"Hyémondans","code":"25311","codeDepartement":"25","codeRegion":"27","codesPostaux":["25250"],"population":198},"geometry":{"type":"Point","coordinates":[6.640666499999997,47.385429685714335]}},{"type":"Feature","properties":{"nom":"Hyèvre-Magny","code":"25312","codeDepartement":"25","codeRegion":"27","codesPostaux":["25110"],"population":73},"geometry":{"type":"Point","coordinates":[6.430749904191618,47.3609385988024]}},{"type":"Feature","properties":{"nom":"Hyèvre-Paroisse","code":"25313","codeDepartement":"25","codeRegion":"27","codesPostaux":["25110"],"population":188},"geometry":{"type":"Point","coordinates":[6.428895689393943,47.372923446969686]}},{"type":"Feature","properties":{"nom":"Indevillers","code":"25314","codeDepartement":"25","codeRegion":"27","codesPostaux":["25470"],"population":251},"geometry":{"type":"Point","coordinates":[6.96678712831859,47.31810319247792]}},{"type":"Feature","properties":{"nom":"L'Isle-sur-le-Doubs","code":"25315","codeDepartement":"25","codeRegion":"27","codesPostaux":["25250"],"population":3061},"geometry":{"type":"Point","coordinates":[6.588690273006132,47.42663456748468]}},{"type":"Feature","properties":{"nom":"Issans","code":"25316","codeDepartement":"25","codeRegion":"27","codesPostaux":["25550"],"population":241},"geometry":{"type":"Point","coordinates":[6.733323465517242,47.5276740689655]}},{"type":"Feature","properties":{"nom":"Jallerange","code":"25317","codeDepartement":"25","codeRegion":"27","codesPostaux":["25170"],"population":254},"geometry":{"type":"Point","coordinates":[5.720982597902097,47.2562231678322]}},{"type":"Feature","properties":{"nom":"Jougne","code":"25318","codeDepartement":"25","codeRegion":"27","codesPostaux":["25370"],"population":1839},"geometry":{"type":"Point","coordinates":[6.38026122742475,46.74832440468228]}},{"type":"Feature","properties":{"nom":"Labergement-Sainte-Marie","code":"25320","codeDepartement":"25","codeRegion":"27","codesPostaux":["25160"],"population":1176},"geometry":{"type":"Point","coordinates":[6.271952774487471,46.773969742596776]}},{"type":"Feature","properties":{"nom":"Villers-le-Lac","code":"25321","codeDepartement":"25","codeRegion":"27","codesPostaux":["25130"],"population":4889},"geometry":{"type":"Point","coordinates":[6.685323223668638,47.0709061431953]}},{"type":"Feature","properties":{"nom":"Laire","code":"25322","codeDepartement":"25","codeRegion":"27","codesPostaux":["25550"],"population":401},"geometry":{"type":"Point","coordinates":[6.737059426470589,47.550883558823536]}},{"type":"Feature","properties":{"nom":"Laissey","code":"25323","codeDepartement":"25","codeRegion":"27","codesPostaux":["25820"],"population":440},"geometry":{"type":"Point","coordinates":[6.230761596244133,47.30090098591549]}},{"type":"Feature","properties":{"nom":"Lanans","code":"25324","codeDepartement":"25","codeRegion":"27","codesPostaux":["25360"],"population":167},"geometry":{"type":"Point","coordinates":[6.446040631578944,47.29217381578948]}},{"type":"Feature","properties":{"nom":"Landresse","code":"25325","codeDepartement":"25","codeRegion":"27","codesPostaux":["25530"],"population":233},"geometry":{"type":"Point","coordinates":[6.484241036866363,47.25947149769584]}},{"type":"Feature","properties":{"nom":"Lantenne-Vertière","code":"25326","codeDepartement":"25","codeRegion":"27","codesPostaux":["25170"],"population":535},"geometry":{"type":"Point","coordinates":[5.776189970802924,47.23037447931874]}},{"type":"Feature","properties":{"nom":"Lanthenans","code":"25327","codeDepartement":"25","codeRegion":"27","codesPostaux":["25250"],"population":67},"geometry":{"type":"Point","coordinates":[6.626726838926176,47.391089161073815]}},{"type":"Feature","properties":{"nom":"Larnod","code":"25328","codeDepartement":"25","codeRegion":"27","codesPostaux":["25720"],"population":772},"geometry":{"type":"Point","coordinates":[5.973063072580644,47.17899305645161]}},{"type":"Feature","properties":{"nom":"Laval-le-Prieuré","code":"25329","codeDepartement":"25","codeRegion":"27","codesPostaux":["25210"],"population":34},"geometry":{"type":"Point","coordinates":[6.624160773109244,47.17992711764703]}},{"type":"Feature","properties":{"nom":"Lavans-Quingey","code":"25330","codeDepartement":"25","codeRegion":"27","codesPostaux":["25440"],"population":200},"geometry":{"type":"Point","coordinates":[5.901136206766917,47.08804298496241]}},{"type":"Feature","properties":{"nom":"Lavans-Vuillafans","code":"25331","codeDepartement":"25","codeRegion":"27","codesPostaux":["25580"],"population":233},"geometry":{"type":"Point","coordinates":[6.261282487288136,47.080542101694945]}},{"type":"Feature","properties":{"nom":"Lavernay","code":"25332","codeDepartement":"25","codeRegion":"27","codesPostaux":["25170"],"population":575},"geometry":{"type":"Point","coordinates":[5.815424930635842,47.242538630057815]}},{"type":"Feature","properties":{"nom":"Laviron","code":"25333","codeDepartement":"25","codeRegion":"27","codesPostaux":["25510"],"population":334},"geometry":{"type":"Point","coordinates":[6.5667239680511145,47.25523900638981]}},{"type":"Feature","properties":{"nom":"Levier","code":"25334","codeDepartement":"25","codeRegion":"27","codesPostaux":["25270"],"population":2169},"geometry":{"type":"Point","coordinates":[6.120599840764331,46.97475272823775]}},{"type":"Feature","properties":{"nom":"Liebvillers","code":"25335","codeDepartement":"25","codeRegion":"27","codesPostaux":["25190"],"population":170},"geometry":{"type":"Point","coordinates":[6.784318610486895,47.332202808988754]}},{"type":"Feature","properties":{"nom":"Liesle","code":"25336","codeDepartement":"25","codeRegion":"27","codesPostaux":["25440"],"population":521},"geometry":{"type":"Point","coordinates":[5.819918839999997,47.06241491076921]}},{"type":"Feature","properties":{"nom":"Lizine","code":"25338","codeDepartement":"25","codeRegion":"27","codesPostaux":["25330"],"population":87},"geometry":{"type":"Point","coordinates":[5.992985162729661,47.055070860892364]}},{"type":"Feature","properties":{"nom":"Lods","code":"25339","codeDepartement":"25","codeRegion":"27","codesPostaux":["25930"],"population":221},"geometry":{"type":"Point","coordinates":[6.2605187804878,47.053806551219466]}},{"type":"Feature","properties":{"nom":"Lombard","code":"25340","codeDepartement":"25","codeRegion":"27","codesPostaux":["25440"],"population":190},"geometry":{"type":"Point","coordinates":[5.850887693693692,47.08051126576575]}},{"type":"Feature","properties":{"nom":"Lomont-sur-Crête","code":"25341","codeDepartement":"25","codeRegion":"27","codesPostaux":["25110"],"population":167},"geometry":{"type":"Point","coordinates":[6.438170024911028,47.33718633096085]}},{"type":"Feature","properties":{"nom":"Longechaux","code":"25342","codeDepartement":"25","codeRegion":"27","codesPostaux":["25690"],"population":77},"geometry":{"type":"Point","coordinates":[6.436617368749998,47.16345679375001]}},{"type":"Feature","properties":{"nom":"Longemaison","code":"25343","codeDepartement":"25","codeRegion":"27","codesPostaux":["25690"],"population":153},"geometry":{"type":"Point","coordinates":[6.4588661082474275,47.08303388659793]}},{"type":"Feature","properties":{"nom":"Longevelle-lès-Russey","code":"25344","codeDepartement":"25","codeRegion":"27","codesPostaux":["25380"],"population":44},"geometry":{"type":"Point","coordinates":[6.656466277419354,47.22310493548386]}},{"type":"Feature","properties":{"nom":"Longevelle-sur-Doubs","code":"25345","codeDepartement":"25","codeRegion":"27","codesPostaux":["25260"],"population":690},"geometry":{"type":"Point","coordinates":[6.6475453695652185,47.458782123188406]}},{"type":"Feature","properties":{"nom":"Longeville","code":"25346","codeDepartement":"25","codeRegion":"27","codesPostaux":["25330"],"population":171},"geometry":{"type":"Point","coordinates":[6.227926126168225,47.03645743925235]}},{"type":"Feature","properties":{"nom":"La Longeville","code":"25347","codeDepartement":"25","codeRegion":"27","codesPostaux":["25650"],"population":797},"geometry":{"type":"Point","coordinates":[6.474159875527431,47.021748261603406]}},{"type":"Feature","properties":{"nom":"Longevilles-Mont-d'Or","code":"25348","codeDepartement":"25","codeRegion":"27","codesPostaux":["25370"],"population":566},"geometry":{"type":"Point","coordinates":[6.325121083123424,46.750129045340074]}},{"type":"Feature","properties":{"nom":"Loray","code":"25349","codeDepartement":"25","codeRegion":"27","codesPostaux":["25390"],"population":498},"geometry":{"type":"Point","coordinates":[6.4997251443298945,47.15910646391752]}},{"type":"Feature","properties":{"nom":"Lougres","code":"25350","codeDepartement":"25","codeRegion":"27","codesPostaux":["25260"],"population":779},"geometry":{"type":"Point","coordinates":[6.682248192307691,47.47160298461539]}},{"type":"Feature","properties":{"nom":"Le Luhier","code":"25351","codeDepartement":"25","codeRegion":"27","codesPostaux":["25210"],"population":217},"geometry":{"type":"Point","coordinates":[6.680598205882353,47.16834171691172]}},{"type":"Feature","properties":{"nom":"Luxiol","code":"25354","codeDepartement":"25","codeRegion":"27","codesPostaux":["25110"],"population":161},"geometry":{"type":"Point","coordinates":[6.345093219101121,47.3767143258427]}},{"type":"Feature","properties":{"nom":"Magny-Châtelard","code":"25355","codeDepartement":"25","codeRegion":"27","codesPostaux":["25360"],"population":60},"geometry":{"type":"Point","coordinates":[6.327509254054053,47.23710930270269]}},{"type":"Feature","properties":{"nom":"Maîche","code":"25356","codeDepartement":"25","codeRegion":"27","codesPostaux":["25120"],"population":4296},"geometry":{"type":"Point","coordinates":[6.800174690702085,47.23785897343448]}},{"type":"Feature","properties":{"nom":"Maisons-du-Bois-Lièvremont","code":"25357","codeDepartement":"25","codeRegion":"27","codesPostaux":["25650"],"population":788},"geometry":{"type":"Point","coordinates":[6.417132416058396,46.978353773722596]}},{"type":"Feature","properties":{"nom":"Malans","code":"25359","codeDepartement":"25","codeRegion":"27","codesPostaux":["25330"],"population":180},"geometry":{"type":"Point","coordinates":[6.031419575280902,47.04265764044945]}},{"type":"Feature","properties":{"nom":"Malbrans","code":"25360","codeDepartement":"25","codeRegion":"27","codesPostaux":["25620"],"population":152},"geometry":{"type":"Point","coordinates":[6.087282462962961,47.12141844444442]}},{"type":"Feature","properties":{"nom":"Malbuisson","code":"25361","codeDepartement":"25","codeRegion":"27","codesPostaux":["25160"],"population":860},"geometry":{"type":"Point","coordinates":[6.310223699999996,46.80007463124997]}},{"type":"Feature","properties":{"nom":"Malpas","code":"25362","codeDepartement":"25","codeRegion":"27","codesPostaux":["25160"],"population":279},"geometry":{"type":"Point","coordinates":[6.285393410958903,46.82477061643835]}},{"type":"Feature","properties":{"nom":"Mamirolle","code":"25364","codeDepartement":"25","codeRegion":"27","codesPostaux":["25620"],"population":1773},"geometry":{"type":"Point","coordinates":[6.165281091397845,47.19934279032254]}},{"type":"Feature","properties":{"nom":"Mancenans","code":"25365","codeDepartement":"25","codeRegion":"27","codesPostaux":["25250"],"population":312},"geometry":{"type":"Point","coordinates":[6.5452730138408315,47.465286702422155]}},{"type":"Feature","properties":{"nom":"Mancenans-Lizerne","code":"25366","codeDepartement":"25","codeRegion":"27","codesPostaux":["25120"],"population":191},"geometry":{"type":"Point","coordinates":[6.772789428082195,47.25763742465751]}},{"type":"Feature","properties":{"nom":"Mandeure","code":"25367","codeDepartement":"25","codeRegion":"27","codesPostaux":["25350"],"population":4833},"geometry":{"type":"Point","coordinates":[6.811525142857138,47.42922961142858]}},{"type":"Feature","properties":{"nom":"Marchaux-Chaudefontaine","code":"25368","codeDepartement":"25","codeRegion":"27","codesPostaux":["25640"],"population":1463},"geometry":{"type":"Point","coordinates":[6.140830790909088,47.33331364090909]}},{"type":"Feature","properties":{"nom":"Marvelise","code":"25369","codeDepartement":"25","codeRegion":"27","codesPostaux":["25250"],"population":164},"geometry":{"type":"Point","coordinates":[6.59729882300885,47.52174888495575]}},{"type":"Feature","properties":{"nom":"Mathay","code":"25370","codeDepartement":"25","codeRegion":"27","codesPostaux":["25700"],"population":2166},"geometry":{"type":"Point","coordinates":[6.770410304498264,47.43866519031142]}},{"type":"Feature","properties":{"nom":"Mazerolles-le-Salin","code":"25371","codeDepartement":"25","codeRegion":"27","codesPostaux":["25170"],"population":203},"geometry":{"type":"Point","coordinates":[5.865901085603115,47.24410742801556]}},{"type":"Feature","properties":{"nom":"Médière","code":"25372","codeDepartement":"25","codeRegion":"27","codesPostaux":["25250"],"population":291},"geometry":{"type":"Point","coordinates":[6.598463186046513,47.464264302325596]}},{"type":"Feature","properties":{"nom":"Le Mémont","code":"25373","codeDepartement":"25","codeRegion":"27","codesPostaux":["25210"],"population":41},"geometry":{"type":"Point","coordinates":[6.689605086021505,47.16176369892471]}},{"type":"Feature","properties":{"nom":"Mercey-le-Grand","code":"25374","codeDepartement":"25","codeRegion":"27","codesPostaux":["25410"],"population":538},"geometry":{"type":"Point","coordinates":[5.757486022012577,47.21042111320755]}},{"type":"Feature","properties":{"nom":"Mérey-sous-Montrond","code":"25375","codeDepartement":"25","codeRegion":"27","codesPostaux":["25660"],"population":424},"geometry":{"type":"Point","coordinates":[6.067021544871793,47.17030689102563]}},{"type":"Feature","properties":{"nom":"Mérey-Vieilley","code":"25376","codeDepartement":"25","codeRegion":"27","codesPostaux":["25870"],"population":145},"geometry":{"type":"Point","coordinates":[6.063019114982583,47.334076724738665]}},{"type":"Feature","properties":{"nom":"Mésandans","code":"25377","codeDepartement":"25","codeRegion":"27","codesPostaux":["25680"],"population":219},"geometry":{"type":"Point","coordinates":[6.378668322314049,47.430778834710736]}},{"type":"Feature","properties":{"nom":"Meslières","code":"25378","codeDepartement":"25","codeRegion":"27","codesPostaux":["25310"],"population":372},"geometry":{"type":"Point","coordinates":[6.893143806451614,47.417643849462365]}},{"type":"Feature","properties":{"nom":"Mesmay","code":"25379","codeDepartement":"25","codeRegion":"27","codesPostaux":["25440"],"population":72},"geometry":{"type":"Point","coordinates":[5.848325762499998,47.059529781250006]}},{"type":"Feature","properties":{"nom":"Métabief","code":"25380","codeDepartement":"25","codeRegion":"27","codesPostaux":["25370"],"population":1184},"geometry":{"type":"Point","coordinates":[6.351170726315787,46.76715384210525]}},{"type":"Feature","properties":{"nom":"Miserey-Salines","code":"25381","codeDepartement":"25","codeRegion":"27","codesPostaux":["25480"],"population":2442},"geometry":{"type":"Point","coordinates":[5.9752623837209295,47.28869265503873]}},{"type":"Feature","properties":{"nom":"Moncey","code":"25382","codeDepartement":"25","codeRegion":"27","codesPostaux":["25870"],"population":563},"geometry":{"type":"Point","coordinates":[6.130117030567684,47.361053895196484]}},{"type":"Feature","properties":{"nom":"Moncley","code":"25383","codeDepartement":"25","codeRegion":"27","codesPostaux":["25170"],"population":286},"geometry":{"type":"Point","coordinates":[5.897843537459282,47.305289042345294]}},{"type":"Feature","properties":{"nom":"Mondon","code":"25384","codeDepartement":"25","codeRegion":"27","codesPostaux":["25680"],"population":95},"geometry":{"type":"Point","coordinates":[6.31293842364532,47.44991195566501]}},{"type":"Feature","properties":{"nom":"Montagney-Servigney","code":"25385","codeDepartement":"25","codeRegion":"27","codesPostaux":["25680"],"population":129},"geometry":{"type":"Point","coordinates":[6.305546406349211,47.46496364126988]}},{"type":"Feature","properties":{"nom":"Montancy","code":"25386","codeDepartement":"25","codeRegion":"27","codesPostaux":["25190"],"population":148},"geometry":{"type":"Point","coordinates":[7.029041993265991,47.35248963299666]}},{"type":"Feature","properties":{"nom":"Montandon","code":"25387","codeDepartement":"25","codeRegion":"27","codesPostaux":["25190"],"population":408},"geometry":{"type":"Point","coordinates":[6.834144855140185,47.30012739252337]}},{"type":"Feature","properties":{"nom":"Montbéliard","code":"25388","codeDepartement":"25","codeRegion":"27","codesPostaux":["25200"],"population":25304},"geometry":{"type":"Point","coordinates":[6.790042436363642,47.51892344727273]}},{"type":"Feature","properties":{"nom":"Montbéliardot","code":"25389","codeDepartement":"25","codeRegion":"27","codesPostaux":["25210"],"population":114},"geometry":{"type":"Point","coordinates":[6.666826021739126,47.179965505434794]}},{"type":"Feature","properties":{"nom":"Montbenoît","code":"25390","codeDepartement":"25","codeRegion":"27","codesPostaux":["25650"],"population":395},"geometry":{"type":"Point","coordinates":[6.464077533742327,46.986640239263814]}},{"type":"Feature","properties":{"nom":"Mont-de-Laval","code":"25391","codeDepartement":"25","codeRegion":"27","codesPostaux":["25210"],"population":175},"geometry":{"type":"Point","coordinates":[6.636006613772456,47.16196459580837]}},{"type":"Feature","properties":{"nom":"Mont-de-Vougney","code":"25392","codeDepartement":"25","codeRegion":"27","codesPostaux":["25120"],"population":181},"geometry":{"type":"Point","coordinates":[6.7406783424657535,47.24281009931504]}},{"type":"Feature","properties":{"nom":"Montécheroux","code":"25393","codeDepartement":"25","codeRegion":"27","codesPostaux":["25190"],"population":569},"geometry":{"type":"Point","coordinates":[6.795912200698078,47.344052439790595]}},{"type":"Feature","properties":{"nom":"Montenois","code":"25394","codeDepartement":"25","codeRegion":"27","codesPostaux":["25260"],"population":1510},"geometry":{"type":"Point","coordinates":[6.658134846153848,47.493904076923066]}},{"type":"Feature","properties":{"nom":"Montfaucon","code":"25395","codeDepartement":"25","codeRegion":"27","codesPostaux":["25660"],"population":1527},"geometry":{"type":"Point","coordinates":[6.0870102755905515,47.23972158661417]}},{"type":"Feature","properties":{"nom":"Montferrand-le-Château","code":"25397","codeDepartement":"25","codeRegion":"27","codesPostaux":["25320"],"population":2108},"geometry":{"type":"Point","coordinates":[5.917516520754713,47.19018687169809]}},{"type":"Feature","properties":{"nom":"Montflovin","code":"25398","codeDepartement":"25","codeRegion":"27","codesPostaux":["25650"],"population":104},"geometry":{"type":"Point","coordinates":[6.428641455696203,46.999010677215175]}},{"type":"Feature","properties":{"nom":"Montgesoye","code":"25400","codeDepartement":"25","codeRegion":"27","codesPostaux":["25111"],"population":472},"geometry":{"type":"Point","coordinates":[6.190713569277109,47.09146606626505]}},{"type":"Feature","properties":{"nom":"Montivernage","code":"25401","codeDepartement":"25","codeRegion":"27","codesPostaux":["25110"],"population":29},"geometry":{"type":"Point","coordinates":[6.420729035714284,47.31165956428574]}},{"type":"Feature","properties":{"nom":"Montjoie-le-Château","code":"25402","codeDepartement":"25","codeRegion":"27","codesPostaux":["25190"],"population":28},"geometry":{"type":"Point","coordinates":[6.8989362075471705,47.346745339622636]}},{"type":"Feature","properties":{"nom":"Montlebon","code":"25403","codeDepartement":"25","codeRegion":"27","codesPostaux":["25500"],"population":2052},"geometry":{"type":"Point","coordinates":[6.6200576818181815,47.027200917508466]}},{"type":"Feature","properties":{"nom":"Montmahoux","code":"25404","codeDepartement":"25","codeRegion":"27","codesPostaux":["25270"],"population":94},"geometry":{"type":"Point","coordinates":[6.0324982875817,46.98201209150329]}},{"type":"Feature","properties":{"nom":"Montperreux","code":"25405","codeDepartement":"25","codeRegion":"27","codesPostaux":["25160"],"population":847},"geometry":{"type":"Point","coordinates":[6.3486915,46.8212638255814]}},{"type":"Feature","properties":{"nom":"Montrond-le-Château","code":"25406","codeDepartement":"25","codeRegion":"27","codesPostaux":["25660"],"population":562},"geometry":{"type":"Point","coordinates":[6.046163450777205,47.14261948704664]}},{"type":"Feature","properties":{"nom":"Montussaint","code":"25408","codeDepartement":"25","codeRegion":"27","codesPostaux":["25680"],"population":59},"geometry":{"type":"Point","coordinates":[6.290338734375,47.435503945312504]}},{"type":"Feature","properties":{"nom":"Morre","code":"25410","codeDepartement":"25","codeRegion":"27","codesPostaux":["25660"],"population":1354},"geometry":{"type":"Point","coordinates":[6.068060247706422,47.22077330275233]}},{"type":"Feature","properties":{"nom":"Morteau","code":"25411","codeDepartement":"25","codeRegion":"27","codesPostaux":["25500"],"population":6970},"geometry":{"type":"Point","coordinates":[6.585486407045008,47.06274115264188]}},{"type":"Feature","properties":{"nom":"Mouthe","code":"25413","codeDepartement":"25","codeRegion":"27","codesPostaux":["25240"],"population":1083},"geometry":{"type":"Point","coordinates":[6.198635675078863,46.69528932492116]}},{"type":"Feature","properties":{"nom":"Le Moutherot","code":"25414","codeDepartement":"25","codeRegion":"27","codesPostaux":["25170"],"population":129},"geometry":{"type":"Point","coordinates":[5.730876054216869,47.24385091566264]}},{"type":"Feature","properties":{"nom":"Mouthier-Haute-Pierre","code":"25415","codeDepartement":"25","codeRegion":"27","codesPostaux":["25920"],"population":328},"geometry":{"type":"Point","coordinates":[6.284865442764581,47.03517740820733]}},{"type":"Feature","properties":{"nom":"Myon","code":"25416","codeDepartement":"25","codeRegion":"27","codesPostaux":["25440"],"population":187},"geometry":{"type":"Point","coordinates":[5.934547421750658,47.00249886206899]}},{"type":"Feature","properties":{"nom":"Naisey-les-Granges","code":"25417","codeDepartement":"25","codeRegion":"27","codesPostaux":["25360"],"population":798},"geometry":{"type":"Point","coordinates":[6.24508470408163,47.210717551020394]}},{"type":"Feature","properties":{"nom":"Nancray","code":"25418","codeDepartement":"25","codeRegion":"27","codesPostaux":["25360"],"population":1259},"geometry":{"type":"Point","coordinates":[6.180520818181816,47.24993664646461]}},{"type":"Feature","properties":{"nom":"Nans","code":"25419","codeDepartement":"25","codeRegion":"27","codesPostaux":["25680"],"population":102},"geometry":{"type":"Point","coordinates":[6.410870089655177,47.4755545448276]}},{"type":"Feature","properties":{"nom":"Nans-sous-Sainte-Anne","code":"25420","codeDepartement":"25","codeRegion":"27","codesPostaux":["25330"],"population":147},"geometry":{"type":"Point","coordinates":[5.993612379947225,46.97526719261211]}},{"type":"Feature","properties":{"nom":"Narbief","code":"25421","codeDepartement":"25","codeRegion":"27","codesPostaux":["25210"],"population":66},"geometry":{"type":"Point","coordinates":[6.693114990049756,47.12790893034824]}},{"type":"Feature","properties":{"nom":"Neuchâtel-Urtière","code":"25422","codeDepartement":"25","codeRegion":"27","codesPostaux":["25150"],"population":194},"geometry":{"type":"Point","coordinates":[6.730013298850575,47.37746460153255]}},{"type":"Feature","properties":{"nom":"Les Premiers Sapins","code":"25424","codeDepartement":"25","codeRegion":"27","codesPostaux":["25580"],"population":1561},"geometry":{"type":"Point","coordinates":[6.326608616224649,47.080227252730126]}},{"type":"Feature","properties":{"nom":"Noël-Cerneux","code":"25425","codeDepartement":"25","codeRegion":"27","codesPostaux":["25500"],"population":421},"geometry":{"type":"Point","coordinates":[6.670011150375942,47.105025609022555]}},{"type":"Feature","properties":{"nom":"Noirefontaine","code":"25426","codeDepartement":"25","codeRegion":"27","codesPostaux":["25190"],"population":377},"geometry":{"type":"Point","coordinates":[6.766535575851398,47.34572159752319]}},{"type":"Feature","properties":{"nom":"Noironte","code":"25427","codeDepartement":"25","codeRegion":"27","codesPostaux":["25170"],"population":383},"geometry":{"type":"Point","coordinates":[5.869866523560207,47.27136675392669]}},{"type":"Feature","properties":{"nom":"Nommay","code":"25428","codeDepartement":"25","codeRegion":"27","codesPostaux":["25600"],"population":1655},"geometry":{"type":"Point","coordinates":[6.846713025641025,47.53806038461538]}},{"type":"Feature","properties":{"nom":"Novillars","code":"25429","codeDepartement":"25","codeRegion":"27","codesPostaux":["25220"],"population":1508},"geometry":{"type":"Point","coordinates":[6.131291250000002,47.2883050735294]}},{"type":"Feature","properties":{"nom":"Ollans","code":"25430","codeDepartement":"25","codeRegion":"27","codesPostaux":["25640"],"population":38},"geometry":{"type":"Point","coordinates":[6.245489885714287,47.41894385714287]}},{"type":"Feature","properties":{"nom":"Onans","code":"25431","codeDepartement":"25","codeRegion":"27","codesPostaux":["25250"],"population":356},"geometry":{"type":"Point","coordinates":[6.606407432926828,47.50049114329273]}},{"type":"Feature","properties":{"nom":"Orchamps-Vennes","code":"25432","codeDepartement":"25","codeRegion":"27","codesPostaux":["25390"],"population":2134},"geometry":{"type":"Point","coordinates":[6.51811875059952,47.10900062110314]}},{"type":"Feature","properties":{"nom":"Orgeans-Blanchefontaine","code":"25433","codeDepartement":"25","codeRegion":"27","codesPostaux":["25120"],"population":47},"geometry":{"type":"Point","coordinates":[6.754801916666668,47.26755584057973]}},{"type":"Feature","properties":{"nom":"Ornans","code":"25434","codeDepartement":"25","codeRegion":"27","codesPostaux":["25290","25620"],"population":4385},"geometry":{"type":"Point","coordinates":[6.153276650065535,47.09986779947578]}},{"type":"Feature","properties":{"nom":"Orsans","code":"25435","codeDepartement":"25","codeRegion":"27","codesPostaux":["25530"],"population":164},"geometry":{"type":"Point","coordinates":[6.38064800214592,47.24903366952788]}},{"type":"Feature","properties":{"nom":"Orve","code":"25436","codeDepartement":"25","codeRegion":"27","codesPostaux":["25430"],"population":64},"geometry":{"type":"Point","coordinates":[6.559230149321266,47.33805899547511]}},{"type":"Feature","properties":{"nom":"Osse","code":"25437","codeDepartement":"25","codeRegion":"27","codesPostaux":["25360"],"population":326},"geometry":{"type":"Point","coordinates":[6.216880127358493,47.27014420283016]}},{"type":"Feature","properties":{"nom":"Osselle-Routelle","code":"25438","codeDepartement":"25","codeRegion":"27","codesPostaux":["25410","25320"],"population":952},"geometry":{"type":"Point","coordinates":[5.85707241276596,47.15696374042555]}},{"type":"Feature","properties":{"nom":"Ougney-Douvot","code":"25439","codeDepartement":"25","codeRegion":"27","codesPostaux":["25640"],"population":249},"geometry":{"type":"Point","coordinates":[6.269220395104891,47.315835559440565]}},{"type":"Feature","properties":{"nom":"Ouhans","code":"25440","codeDepartement":"25","codeRegion":"27","codesPostaux":["25520"],"population":375},"geometry":{"type":"Point","coordinates":[6.317972822580647,47.00647004032262]}},{"type":"Feature","properties":{"nom":"Ouvans","code":"25441","codeDepartement":"25","codeRegion":"27","codesPostaux":["25530"],"population":62},"geometry":{"type":"Point","coordinates":[6.4985176276595755,47.2784707978723]}},{"type":"Feature","properties":{"nom":"Oye-et-Pallet","code":"25442","codeDepartement":"25","codeRegion":"27","codesPostaux":["25160"],"population":731},"geometry":{"type":"Point","coordinates":[6.344273277511957,46.852337239234394]}},{"type":"Feature","properties":{"nom":"Palantine","code":"25443","codeDepartement":"25","codeRegion":"27","codesPostaux":["25440"],"population":67},"geometry":{"type":"Point","coordinates":[5.942054468926554,47.10150805649716]}},{"type":"Feature","properties":{"nom":"Palise","code":"25444","codeDepartement":"25","codeRegion":"27","codesPostaux":["25870"],"population":141},"geometry":{"type":"Point","coordinates":[6.092967233644857,47.3653114766355]}},{"type":"Feature","properties":{"nom":"Paroy","code":"25445","codeDepartement":"25","codeRegion":"27","codesPostaux":["25440"],"population":124},"geometry":{"type":"Point","coordinates":[5.883116324742269,47.035695706185564]}},{"type":"Feature","properties":{"nom":"Passavant","code":"25446","codeDepartement":"25","codeRegion":"27","codesPostaux":["25360"],"population":230},"geometry":{"type":"Point","coordinates":[6.396812006410257,47.275854516025646]}},{"type":"Feature","properties":{"nom":"Passonfontaine","code":"25447","codeDepartement":"25","codeRegion":"27","codesPostaux":["25690"],"population":323},"geometry":{"type":"Point","coordinates":[6.416678528925621,47.1002201446281]}},{"type":"Feature","properties":{"nom":"Pelousey","code":"25448","codeDepartement":"25","codeRegion":"27","codesPostaux":["25170"],"population":1511},"geometry":{"type":"Point","coordinates":[5.924840628099175,47.27819445454542]}},{"type":"Feature","properties":{"nom":"Péseux","code":"25449","codeDepartement":"25","codeRegion":"27","codesPostaux":["25190"],"population":120},"geometry":{"type":"Point","coordinates":[6.686320068000007,47.31927985600005]}},{"type":"Feature","properties":{"nom":"Pessans","code":"25450","codeDepartement":"25","codeRegion":"27","codesPostaux":["25440"],"population":87},"geometry":{"type":"Point","coordinates":[5.889398969465647,47.07268327480918]}},{"type":"Feature","properties":{"nom":"Petite-Chaux","code":"25451","codeDepartement":"25","codeRegion":"27","codesPostaux":["25240"],"population":145},"geometry":{"type":"Point","coordinates":[6.167903293413173,46.68040488023951]}},{"type":"Feature","properties":{"nom":"Pierrefontaine-lès-Blamont","code":"25452","codeDepartement":"25","codeRegion":"27","codesPostaux":["25310"],"population":462},"geometry":{"type":"Point","coordinates":[6.82037319787986,47.371395130742016]}},{"type":"Feature","properties":{"nom":"Pierrefontaine-les-Varans","code":"25453","codeDepartement":"25","codeRegion":"27","codesPostaux":["25510"],"population":1414},"geometry":{"type":"Point","coordinates":[6.5628024884955725,47.214863911504445]}},{"type":"Feature","properties":{"nom":"Pirey","code":"25454","codeDepartement":"25","codeRegion":"27","codesPostaux":["25480"],"population":2049},"geometry":{"type":"Point","coordinates":[5.964290591111111,47.26195515111109]}},{"type":"Feature","properties":{"nom":"Placey","code":"25455","codeDepartement":"25","codeRegion":"27","codesPostaux":["25170"],"population":198},"geometry":{"type":"Point","coordinates":[5.850957669565218,47.25821096521737]}},{"type":"Feature","properties":{"nom":"Plaimbois-du-Miroir","code":"25456","codeDepartement":"25","codeRegion":"27","codesPostaux":["25210"],"population":235},"geometry":{"type":"Point","coordinates":[6.645290885393257,47.19340628089887]}},{"type":"Feature","properties":{"nom":"Plaimbois-Vennes","code":"25457","codeDepartement":"25","codeRegion":"27","codesPostaux":["25390"],"population":102},"geometry":{"type":"Point","coordinates":[6.555029639155474,47.18490299616118]}},{"type":"Feature","properties":{"nom":"Les Plains-et-Grands-Essarts","code":"25458","codeDepartement":"25","codeRegion":"27","codesPostaux":["25470"],"population":222},"geometry":{"type":"Point","coordinates":[6.892494670967743,47.30506067741939]}},{"type":"Feature","properties":{"nom":"La Planée","code":"25459","codeDepartement":"25","codeRegion":"27","codesPostaux":["25160"],"population":279},"geometry":{"type":"Point","coordinates":[6.269648664835165,46.84517622527474]}},{"type":"Feature","properties":{"nom":"Le Val","code":"25460","codeDepartement":"25","codeRegion":"27","codesPostaux":["25440"],"population":241},"geometry":{"type":"Point","coordinates":[5.901018219512196,47.06303287804879]}},{"type":"Feature","properties":{"nom":"Pompierre-sur-Doubs","code":"25461","codeDepartement":"25","codeRegion":"27","codesPostaux":["25340"],"population":307},"geometry":{"type":"Point","coordinates":[6.524509165938863,47.42329088209606]}},{"type":"Feature","properties":{"nom":"Pontarlier","code":"25462","codeDepartement":"25","codeRegion":"27","codesPostaux":["25300"],"population":17284},"geometry":{"type":"Point","coordinates":[6.389485013468012,46.9147209124579]}},{"type":"Feature","properties":{"nom":"Pont-de-Roide-Vermondans","code":"25463","codeDepartement":"25","codeRegion":"27","codesPostaux":["25150"],"population":4200},"geometry":{"type":"Point","coordinates":[6.7638028616714685,47.37905618443803]}},{"type":"Feature","properties":{"nom":"Les Pontets","code":"25464","codeDepartement":"25","codeRegion":"27","codesPostaux":["25240"],"population":139},"geometry":{"type":"Point","coordinates":[6.171335366666667,46.72289660666667]}},{"type":"Feature","properties":{"nom":"Pont-les-Moulins","code":"25465","codeDepartement":"25","codeRegion":"27","codesPostaux":["25110"],"population":187},"geometry":{"type":"Point","coordinates":[6.367654852272722,47.32657271022728]}},{"type":"Feature","properties":{"nom":"Pouilley-Français","code":"25466","codeDepartement":"25","codeRegion":"27","codesPostaux":["25410"],"population":832},"geometry":{"type":"Point","coordinates":[5.845873440000003,47.205371538181815]}},{"type":"Feature","properties":{"nom":"Pouilley-les-Vignes","code":"25467","codeDepartement":"25","codeRegion":"27","codesPostaux":["25115"],"population":1967},"geometry":{"type":"Point","coordinates":[5.933609510683767,47.261569929487166]}},{"type":"Feature","properties":{"nom":"Pouligney-Lusans","code":"25468","codeDepartement":"25","codeRegion":"27","codesPostaux":["25640"],"population":848},"geometry":{"type":"Point","coordinates":[6.201701760606062,47.33873156363636]}},{"type":"Feature","properties":{"nom":"Présentevillers","code":"25469","codeDepartement":"25","codeRegion":"27","codesPostaux":["25550"],"population":453},"geometry":{"type":"Point","coordinates":[6.728550782178221,47.501804663366336]}},{"type":"Feature","properties":{"nom":"La Prétière","code":"25470","codeDepartement":"25","codeRegion":"27","codesPostaux":["25250"],"population":159},"geometry":{"type":"Point","coordinates":[6.61149408256881,47.44669673394496]}},{"type":"Feature","properties":{"nom":"Provenchère","code":"25471","codeDepartement":"25","codeRegion":"27","codesPostaux":["25380"],"population":134},"geometry":{"type":"Point","coordinates":[6.641857913043477,47.291186486956526]}},{"type":"Feature","properties":{"nom":"Puessans","code":"25472","codeDepartement":"25","codeRegion":"27","codesPostaux":["25680"],"population":31},"geometry":{"type":"Point","coordinates":[6.323567223684207,47.43332856578945]}},{"type":"Feature","properties":{"nom":"Pugey","code":"25473","codeDepartement":"25","codeRegion":"27","codesPostaux":["25720"],"population":748},"geometry":{"type":"Point","coordinates":[5.992179933333334,47.17054660476194]}},{"type":"Feature","properties":{"nom":"Le Puy","code":"25474","codeDepartement":"25","codeRegion":"27","codesPostaux":["25640"],"population":111},"geometry":{"type":"Point","coordinates":[6.2299454660194185,47.34564780582522]}},{"type":"Feature","properties":{"nom":"Quingey","code":"25475","codeDepartement":"25","codeRegion":"27","codesPostaux":["25440"],"population":1425},"geometry":{"type":"Point","coordinates":[5.886373771561774,47.10705509557106]}},{"type":"Feature","properties":{"nom":"Rahon","code":"25476","codeDepartement":"25","codeRegion":"27","codesPostaux":["25430"],"population":128},"geometry":{"type":"Point","coordinates":[6.585308477551014,47.326881502040806]}},